$GNRMC,071050.864,A,3717.8298,N,00340.9611,W,0.00,245.01,280623,,,A*65

$GNGGA,071050.864,3717.8298,N,00340.9611,W,1,6,1.29,695.9,M,49.3,M,,*59

$GNRMC,071051.264,A,3717.8301,N,00340.9612,W,0.00,245.01,280623,,,A*6C

$GNGGA,071051.264,3717.8301,N,00340.9612,W,1,6,1.29,695.9,M,49.3,M,,*50

$GNRMC,071051.664,A,3717.8302,N,00340.9613,W,0.00,245.01,280623,,,A*6A

$GNGGA,071051.664,3717.8302,N,00340.9613,W,1,6,1.29,695.9,M,49.3,M,,*56

$GNRMC,071052.064,A,3717.8302,N,00340.9613,W,0.00,245.01,280623,,,A*6F

$GNGGA,071052.064,3717.8302,N,00340.9613,W,1,6,1.29,695.9,M,49.3,M,,*53

$GNRMC,071052.464,A,3717.8302,N,00340.9613,W,1.02,122.98,280623,,,A*6A

$GNGGA,071052.464,3717.8302,N,00340.9613,W,1,6,1.29,695.9,M,49.3,M,,*57

$GNRMC,071052.864,A,3717.8303,N,00340.9608,W,1.30,122.38,280623,,,A*66

$GNGGA,071052.864,3717.8303,N,00340.9608,W,1,6,1.29,695.9,M,49.3,M,,*50

$GNRMC,071053.264,A,3717.8300,N,00340.9604,W,1.93,131.61,280623,,,A*65

$GNGGA,071053.264,3717.8300,N,00340.9604,W,1,6,1.29,695.8,M,49.3,M,,*55

$GNRMC,071053.664,A,3717.8301,N,00340.9604,W,1.45,132.45,280623,,,A*6E

$GNGGA,071053.664,3717.8301,N,00340.9604,W,1,6,1.29,695.8,M,49.3,M,,*50

$GNRMC,071054.064,A,3717.8301,N,00340.9604,W,1.27,142.73,280623,,,A*69

$GNGGA,071054.064,3717.8301,N,00340.9604,W,1,6,1.29,695.7,M,49.3,M,,*5E

$GNRMC,071054.464,A,3717.8303,N,00340.9606,W,0.00,152.69,280623,,,A*63

$GNGGA,071054.464,3717.8303,N,00340.9606,W,1,6,1.29,695.7,M,49.3,M,,*5A

$GNRMC,071054.864,A,3717.8305,N,00340.9608,W,0.00,152.69,280623,,,A*67

$GNGGA,071054.864,3717.8305,N,00340.9608,W,1,6,1.29,695.6,M,49.3,M,,*5F

$GNRMC,071055.264,A,3717.8305,N,00340.9609,W,1.55,206.98,280623,,,A*60

$GNGGA,071055.264,3717.8305,N,00340.9609,W,1,6,1.29,695.6,M,49.3,M,,*55

$GNRMC,071055.664,A,3717.8306,N,00340.9610,W,1.07,218.52,280623,,,A*61

$GNGGA,071055.664,3717.8306,N,00340.9610,W,1,6,1.29,695.6,M,49.3,M,,*5A

$GNRMC,071056.064,A,3717.8301,N,00340.9603,W,1.21,186.36,280623,,,A*63

$GNGGA,071056.064,3717.8301,N,00340.9603,W,1,6,1.26,695.8,M,49.3,M,,*5B

$GNRMC,071056.464,A,3717.8300,N,00340.9598,W,1.37,155.53,280623,,,A*6D

$GNGGA,071056.464,3717.8300,N,00340.9598,W,1,6,1.26,695.9,M,49.3,M,,*5E

$GNRMC,071056.864,A,3717.8301,N,00340.9598,W,0.98,158.92,280623,,,A*64

$GNGGA,071056.864,3717.8301,N,00340.9598,W,1,6,1.26,695.9,M,49.3,M,,*53

$GNRMC,071057.264,A,3717.8304,N,00340.9597,W,0.79,142.02,280623,,,A*68

$GNGGA,071057.264,3717.8304,N,00340.9597,W,1,6,1.29,695.9,M,49.3,M,,*5D

$GNRMC,071057.664,A,3717.8307,N,00340.9596,W,0.00,142.02,280623,,,A*60

$GNGGA,071057.664,3717.8307,N,00340.9596,W,1,6,1.29,695.9,M,49.3,M,,*5B

$GNRMC,071058.064,A,3717.8310,N,00340.9598,W,0.00,142.02,280623,,,A*61

$GNGGA,071058.064,3717.8310,N,00340.9598,W,1,6,1.29,695.8,M,49.3,M,,*5B

$GNRMC,071058.464,A,3717.8313,N,00340.9595,W,0.00,142.02,280623,,,A*6B

$GNGGA,071058.464,3717.8313,N,00340.9595,W,1,6,1.29,695.8,M,49.3,M,,*51

$GNRMC,071058.864,A,3717.8313,N,00340.9595,W,0.00,142.02,280623,,,A*67

$GNGGA,071058.864,3717.8313,N,00340.9595,W,1,6,1.29,695.8,M,49.3,M,,*5D

$GNRMC,071059.264,A,3717.8313,N,00340.9595,W,0.00,142.02,280623,,,A*6C

$GNGGA,071059.264,3717.8313,N,00340.9595,W,1,6,1.29,695.8,M,49.3,M,,*56

$GNRMC,071059.664,A,3717.8313,N,00340.9595,W,0.00,142.02,280623,,,A*68

$GNGGA,071059.664,3717.8313,N,00340.9595,W,1,6,1.29,695.8,M,49.3,M,,*52

$GNRMC,071100.064,A,3717.8313,N,00340.9595,W,0.86,82.74,280623,,,A*51

$GNGGA,071100.064,3717.8313,N,00340.9595,W,1,6,1.29,695.8,M,49.3,M,,*59

$GNRMC,071100.464,A,3717.8318,N,00340.9584,W,0.78,84.47,280623,,,A*59

$GNGGA,071100.464,3717.8318,N,00340.9584,W,1,6,1.29,695.7,M,49.3,M,,*59

$GNRMC,071100.864,A,3717.8319,N,00340.9581,W,1.10,81.99,280623,,,A*58

$GNGGA,071100.864,3717.8319,N,00340.9581,W,1,6,1.29,695.7,M,49.3,M,,*51

$GNRMC,071101.264,A,3717.8320,N,00340.9579,W,1.33,78.16,280623,,,A*5E

$GNGGA,071101.264,3717.8320,N,00340.9579,W,1,5,2.01,695.7,M,49.3,M,,*5D

$GNRMC,071101.664,A,3717.8321,N,00340.9576,W,1.59,78.93,280623,,,A*55

$GNGGA,071101.664,3717.8321,N,00340.9576,W,1,4,2.70,695.8,M,49.3,M,,*5F

$GNRMC,071102.064,A,3717.8323,N,00340.9573,W,1.74,76.58,280623,,,A*51

$GNGGA,071102.064,3717.8323,N,00340.9573,W,1,5,1.31,695.8,M,49.3,M,,*5A

$GNRMC,071102.464,A,3717.8325,N,00340.9567,W,2.13,71.32,280623,,,A*5F

$GNGGA,071102.464,3717.8325,N,00340.9567,W,1,5,1.31,695.8,M,49.3,M,,*5D

$GNRMC,071102.864,A,3717.8331,N,00340.9558,W,2.60,72.70,280623,,,A*5B

$GNGGA,071102.864,3717.8331,N,00340.9558,W,1,5,1.31,695.8,M,49.3,M,,*58

$GNRMC,071103.264,A,3717.8340,N,00340.9551,W,2.58,59.63,280623,,,A*5F

$GNGGA,071103.264,3717.8340,N,00340.9551,W,1,5,1.31,695.7,M,49.3,M,,*53

$GNRMC,071103.664,A,3717.8348,N,00340.9539,W,2.61,57.11,280623,,,A*5C

$GNGGA,071103.664,3717.8348,N,00340.9539,W,1,6,1.30,695.5,M,49.3,M,,*51

$GNRMC,071104.064,A,3717.8348,N,00340.9531,W,2.59,60.93,280623,,,A*50

$GNGGA,071104.064,3717.8348,N,00340.9531,W,1,6,1.30,695.4,M,49.3,M,,*59

$GNRMC,071104.464,A,3717.8348,N,00340.9524,W,2.55,61.55,280623,,,A*57

$GNGGA,071104.464,3717.8348,N,00340.9524,W,1,6,1.30,695.5,M,49.3,M,,*58

$GNRMC,071104.864,A,3717.8347,N,00340.9514,W,2.61,66.19,280623,,,A*5F

$GNGGA,071104.864,3717.8347,N,00340.9514,W,1,6,1.30,695.5,M,49.3,M,,*58

$GNRMC,071105.264,A,3717.8347,N,00340.9507,W,2.79,67.55,280623,,,A*56

$GNGGA,071105.264,3717.8347,N,00340.9507,W,1,6,1.30,695.6,M,49.3,M,,*52

$GNRMC,071105.664,A,3717.8355,N,00340.9502,W,2.62,57.67,280623,,,A*5C

$GNGGA,071105.664,3717.8355,N,00340.9502,W,1,6,1.30,695.8,M,49.3,M,,*5E

$GNRMC,071106.064,A,3717.8361,N,00340.9500,W,2.55,51.04,280623,,,A*5B

$GNGGA,071106.064,3717.8361,N,00340.9500,W,1,6,1.30,696.3,M,49.3,M,,*56

$GNRMC,071106.464,A,3717.8364,N,00340.9495,W,2.51,52.76,280623,,,A*55

$GNGGA,071106.464,3717.8364,N,00340.9495,W,1,6,1.30,696.5,M,49.3,M,,*5C

$GNRMC,071106.864,A,3717.8367,N,00340.9489,W,2.53,54.49,280623,,,A*5F

$GNGGA,071106.864,3717.8367,N,00340.9489,W,1,6,1.30,696.7,M,49.3,M,,*5C

$GNRMC,071107.264,A,3717.8373,N,00340.9487,W,2.53,50.42,280623,,,A*50

$GNGGA,071107.264,3717.8373,N,00340.9487,W,1,6,1.30,697.1,M,49.3,M,,*5B

$GNRMC,071107.664,A,3717.8376,N,00340.9483,W,2.57,49.09,280623,,,A*56

$GNGGA,071107.664,3717.8376,N,00340.9483,W,1,6,1.30,697.4,M,49.3,M,,*5B

$GNRMC,071108.064,A,3717.8378,N,00340.9478,W,2.56,53.42,280623,,,A*50

$GNGGA,071108.064,3717.8378,N,00340.9478,W,1,6,1.30,697.5,M,49.3,M,,*59

$GNRMC,071108.464,A,3717.8378,N,00340.9473,W,2.38,57.86,280623,,,A*5B

$GNGGA,071108.464,3717.8378,N,00340.9473,W,1,6,1.31,697.7,M,49.3,M,,*55

$GNRMC,071108.864,A,3717.8377,N,00340.9468,W,2.38,63.57,280623,,,A*59

$GNGGA,071108.864,3717.8377,N,00340.9468,W,1,6,1.31,697.9,M,49.3,M,,*52

$GNRMC,071109.264,A,3717.8378,N,00340.9465,W,2.36,63.44,280623,,,A*5C

$GNGGA,071109.264,3717.8378,N,00340.9465,W,1,6,1.30,698.0,M,49.3,M,,*5C

$GNRMC,071109.664,A,3717.8378,N,00340.9461,W,2.33,65.60,280623,,,A*59

$GNGGA,071109.664,3717.8378,N,00340.9461,W,1,6,1.30,698.2,M,49.3,M,,*5E

$GNRMC,071110.064,A,3717.8379,N,00340.9458,W,2.29,64.89,280623,,,A*51

$GNGGA,071110.064,3717.8379,N,00340.9458,W,1,6,1.30,698.3,M,49.3,M,,*5A

$GNRMC,071110.464,A,3717.8379,N,00340.9453,W,2.22,63.72,280623,,,A*56

$GNGGA,071110.464,3717.8379,N,00340.9453,W,1,6,1.30,698.4,M,49.3,M,,*52

$GNRMC,071110.864,A,3717.8379,N,00340.9446,W,2.17,67.78,280623,,,A*56

$GNGGA,071110.864,3717.8379,N,00340.9446,W,1,6,1.30,698.5,M,49.3,M,,*5B

$GNRMC,071111.264,A,3717.8378,N,00340.9439,W,2.13,72.21,280623,,,A*58

$GNGGA,071111.264,3717.8378,N,00340.9439,W,1,6,1.30,698.7,M,49.3,M,,*5B

$GNRMC,071111.664,A,3717.8378,N,00340.9435,W,2.11,72.51,280623,,,A*55

$GNGGA,071111.664,3717.8378,N,00340.9435,W,1,6,1.30,698.8,M,49.3,M,,*5C

$GNRMC,071112.064,A,3717.8377,N,00340.9430,W,2.09,72.35,280623,,,A*51

$GNGGA,071112.064,3717.8377,N,00340.9430,W,1,6,1.30,699.0,M,49.3,M,,*5A

$GNRMC,071112.464,A,3717.8378,N,00340.9429,W,2.07,71.23,280623,,,A*58

$GNGGA,071112.464,3717.8378,N,00340.9429,W,1,7,1.24,699.0,M,49.3,M,,*5D

$GNRMC,071112.864,A,3717.8381,N,00340.9423,W,2.08,65.69,280623,,,A*5C

$GNGGA,071112.864,3717.8381,N,00340.9423,W,1,8,1.21,700.2,M,49.3,M,,*54

$GNRMC,071113.264,A,3717.8383,N,00340.9418,W,2.26,65.63,280623,,,A*5B

$GNGGA,071113.264,3717.8383,N,00340.9418,W,1,8,1.20,701.1,M,49.3,M,,*56

$GNRMC,071113.664,A,3717.8386,N,00340.9415,W,2.20,66.32,280623,,,A*56

$GNGGA,071113.664,3717.8386,N,00340.9415,W,1,8,1.20,701.8,M,49.3,M,,*53

$GNRMC,071114.064,A,3717.8387,N,00340.9413,W,2.13,67.40,280623,,,A*54

$GNGGA,071114.064,3717.8387,N,00340.9413,W,1,8,1.20,702.3,M,49.3,M,,*5D

$GNRMC,071114.464,A,3717.8388,N,00340.9409,W,2.11,68.20,280623,,,A*5F

$GNGGA,071114.464,3717.8388,N,00340.9409,W,1,8,1.21,702.6,M,49.3,M,,*59

$GNRMC,071114.864,A,3717.8389,N,00340.9405,W,2.11,69.59,280623,,,A*51

$GNGGA,071114.864,3717.8389,N,00340.9405,W,1,8,1.20,702.9,M,49.3,M,,*56

$GNRMC,071115.264,A,3717.8391,N,00340.9402,W,2.10,67.29,280623,,,A*5C

$GNGGA,071115.264,3717.8391,N,00340.9402,W,1,8,1.20,703.1,M,49.3,M,,*5A

$GNRMC,071115.664,A,3717.8392,N,00340.9399,W,2.07,66.85,280623,,,A*5F

$GNGGA,071115.664,3717.8392,N,00340.9399,W,1,7,1.28,703.2,M,49.3,M,,*5C

$GNRMC,071116.064,A,3717.8392,N,00340.9397,W,2.06,67.63,280623,,,A*5C

$GNGGA,071116.064,3717.8392,N,00340.9397,W,1,7,1.28,703.4,M,49.3,M,,*51

$GNRMC,071116.464,A,3717.8393,N,00340.9393,W,2.05,67.06,280623,,,A*5D

$GNGGA,071116.464,3717.8393,N,00340.9393,W,1,8,1.20,703.6,M,49.3,M,,*55

$GNRMC,071116.864,A,3717.8394,N,00340.9391,W,2.02,67.86,280623,,,A*5B

$GNGGA,071116.864,3717.8394,N,00340.9391,W,1,8,1.20,703.8,M,49.3,M,,*52

$GNRMC,071117.264,A,3717.8393,N,00340.9388,W,1.98,71.85,280623,,,A*5B

$GNGGA,071117.264,3717.8393,N,00340.9388,W,1,8,1.20,704.0,M,49.3,M,,*59

$GNRMC,071117.664,A,3717.8394,N,00340.9385,W,1.93,73.39,280623,,,A*5B

$GNGGA,071117.664,3717.8394,N,00340.9385,W,1,8,1.20,704.1,M,49.3,M,,*56

$GNRMC,071118.064,A,3717.8394,N,00340.9383,W,1.89,73.50,280623,,,A*50

$GNGGA,071118.064,3717.8394,N,00340.9383,W,1,7,1.24,704.2,M,49.3,M,,*51

$GNRMC,071118.464,A,3717.8395,N,00340.9381,W,1.84,71.10,280623,,,A*5C

$GNGGA,071118.464,3717.8395,N,00340.9381,W,1,8,1.21,704.3,M,49.3,M,,*5D

$GNRMC,071118.864,A,3717.8396,N,00340.9380,W,1.79,71.12,280623,,,A*52

$GNGGA,071118.864,3717.8396,N,00340.9380,W,1,8,1.20,704.4,M,49.3,M,,*55

$GNRMC,071119.264,A,3717.8395,N,00340.9378,W,1.56,74.94,280623,,,A*5B

$GNGGA,071119.264,3717.8395,N,00340.9378,W,1,8,1.20,704.5,M,49.3,M,,*5B

$GNRMC,071119.664,A,3717.8395,N,00340.9380,W,1.31,72.28,280623,,,A*58

$GNGGA,071119.664,3717.8395,N,00340.9380,W,1,8,1.21,704.6,M,49.3,M,,*5A

$GNRMC,071120.064,A,3717.8395,N,00340.9380,W,1.07,75.32,280623,,,A*5D

$GNGGA,071120.064,3717.8395,N,00340.9380,W,1,8,1.20,704.7,M,49.3,M,,*56

$GNRMC,071120.464,A,3717.8394,N,00340.9379,W,0.00,147.62,280623,,,A*6D

$GNGGA,071120.464,3717.8394,N,00340.9379,W,1,8,1.20,704.8,M,49.3,M,,*5A

$GNRMC,071120.864,A,3717.8393,N,00340.9379,W,0.92,184.87,280623,,,A*69

$GNGGA,071120.864,3717.8393,N,00340.9379,W,1,8,1.21,704.9,M,49.3,M,,*51

$GNRMC,071121.264,A,3717.8390,N,00340.9379,W,1.14,186.17,280623,,,A*65

$GNGGA,071121.264,3717.8390,N,00340.9379,W,1,8,1.20,705.0,M,49.3,M,,*50

$GNRMC,071121.664,A,3717.8388,N,00340.9380,W,1.31,191.34,280623,,,A*6E

$GNGGA,071121.664,3717.8388,N,00340.9380,W,1,8,1.20,705.2,M,49.3,M,,*59

$GNRMC,071122.064,A,3717.8386,N,00340.9382,W,1.23,203.55,280623,,,A*6B

$GNGGA,071122.064,3717.8386,N,00340.9382,W,1,8,1.21,705.3,M,49.3,M,,*50

$GNRMC,071122.464,A,3717.8384,N,00340.9383,W,1.26,204.79,280623,,,A*60

$GNGGA,071122.464,3717.8384,N,00340.9383,W,1,8,1.21,705.5,M,49.3,M,,*51

$GNRMC,071122.864,A,3717.8382,N,00340.9385,W,1.33,207.02,280623,,,A*67

$GNGGA,071122.864,3717.8382,N,00340.9385,W,1,8,1.20,705.6,M,49.3,M,,*5F

$GNRMC,071123.264,A,3717.8379,N,00340.9386,W,1.61,189.27,280623,,,A*6E

$GNGGA,071123.264,3717.8379,N,00340.9386,W,1,8,1.21,705.7,M,49.3,M,,*53

$GNRMC,071123.664,A,3717.8376,N,00340.9386,W,2.13,193.46,280623,,,A*6F

$GNGGA,071123.664,3717.8376,N,00340.9386,W,1,8,1.21,705.8,M,49.3,M,,*57

$GNRMC,071124.064,A,3717.8372,N,00340.9386,W,2.17,186.05,280623,,,A*6D

$GNGGA,071124.064,3717.8372,N,00340.9386,W,1,8,1.20,705.9,M,49.3,M,,*52

$GNRMC,071124.464,A,3717.8366,N,00340.9387,W,2.35,187.70,280623,,,A*6E

$GNGGA,071124.464,3717.8366,N,00340.9387,W,1,8,1.21,706.0,M,49.3,M,,*59

$GNRMC,071124.864,A,3717.8361,N,00340.9388,W,2.53,191.83,280623,,,A*61

$GNGGA,071124.864,3717.8361,N,00340.9388,W,1,8,1.21,706.1,M,49.3,M,,*5C

$GNRMC,071125.264,A,3717.8357,N,00340.9391,W,2.59,195.20,280623,,,A*60

$GNGGA,071125.264,3717.8357,N,00340.9391,W,1,8,1.21,706.2,M,49.3,M,,*59

$GNRMC,071125.664,A,3717.8352,N,00340.9392,W,2.66,195.82,280623,,,A*66

$GNGGA,071125.664,3717.8352,N,00340.9392,W,1,8,1.21,706.4,M,49.3,M,,*5D

$GNRMC,071126.064,A,3717.8348,N,00340.9392,W,2.73,192.95,280623,,,A*6D

$GNGGA,071126.064,3717.8348,N,00340.9392,W,1,8,1.20,706.5,M,49.3,M,,*53

$GNRMC,071126.464,A,3717.8343,N,00340.9392,W,3.04,189.90,280623,,,A*6C

$GNGGA,071126.464,3717.8343,N,00340.9392,W,1,8,1.21,706.6,M,49.3,M,,*5E

$GNRMC,071126.864,A,3717.8339,N,00340.9391,W,2.99,187.77,280623,,,A*6C

$GNGGA,071126.864,3717.8339,N,00340.9391,W,1,8,1.21,706.8,M,49.3,M,,*52

$GNRMC,071127.264,A,3717.8335,N,00340.9392,W,3.24,190.76,280623,,,A*68

$GNGGA,071127.264,3717.8335,N,00340.9392,W,1,8,1.21,706.9,M,49.3,M,,*57

$GNRMC,071127.664,A,3717.8332,N,00340.9395,W,3.02,209.45,280623,,,A*6B

$GNGGA,071127.664,3717.8332,N,00340.9395,W,1,8,1.21,707.0,M,49.3,M,,*5B

$GNRMC,071128.064,A,3717.8327,N,00340.9397,W,3.07,207.79,280623,,,A*60

$GNGGA,071128.064,3717.8327,N,00340.9397,W,1,8,1.21,707.0,M,49.3,M,,*54

$GNRMC,071128.464,A,3717.8324,N,00340.9399,W,3.09,209.67,280623,,,A*66

$GNGGA,071128.464,3717.8324,N,00340.9399,W,1,8,1.21,707.1,M,49.3,M,,*5C

$GNRMC,071128.864,A,3717.8320,N,00340.9401,W,2.84,211.94,280623,,,A*69

$GNGGA,071128.864,3717.8320,N,00340.9401,W,1,8,1.21,707.1,M,49.3,M,,*52

$GNRMC,071129.264,A,3717.8318,N,00340.9404,W,2.85,222.00,280623,,,A*60

$GNGGA,071129.264,3717.8318,N,00340.9404,W,1,8,1.20,707.2,M,49.3,M,,*55

$GNRMC,071129.664,A,3717.8315,N,00340.9407,W,2.66,222.38,280623,,,A*6C

$GNGGA,071129.664,3717.8315,N,00340.9407,W,1,8,1.21,707.3,M,49.3,M,,*5F

$GNRMC,071130.064,A,3717.8312,N,00340.9409,W,2.70,219.43,280623,,,A*68

$GNGGA,071130.064,3717.8312,N,00340.9409,W,1,8,1.20,707.3,M,49.3,M,,*59

$GNRMC,071130.464,A,3717.8310,N,00340.9411,W,2.64,227.19,280623,,,A*60

$GNGGA,071130.464,3717.8310,N,00340.9411,W,1,8,1.21,707.4,M,49.3,M,,*50

$GNRMC,071130.864,A,3717.8308,N,00340.9415,W,3.05,231.07,280623,,,A*6F

$GNGGA,071130.864,3717.8308,N,00340.9415,W,1,8,1.21,707.5,M,49.3,M,,*50

$GNRMC,071131.264,A,3717.8307,N,00340.9418,W,2.85,240.47,280623,,,A*6D

$GNGGA,071131.264,3717.8307,N,00340.9418,W,1,8,1.21,707.5,M,49.3,M,,*59

$GNRMC,071131.664,A,3717.8304,N,00340.9420,W,2.87,229.42,280623,,,A*69

$GNGGA,071131.664,3717.8304,N,00340.9420,W,1,8,1.21,707.6,M,49.3,M,,*56

$GNRMC,071132.064,A,3717.8302,N,00340.9422,W,2.80,232.45,280623,,,A*62

$GNGGA,071132.064,3717.8302,N,00340.9422,W,1,8,1.20,707.8,M,49.3,M,,*58

$GNRMC,071132.464,A,3717.8300,N,00340.9424,W,2.81,232.44,280623,,,A*62

$GNGGA,071132.464,3717.8300,N,00340.9424,W,1,8,1.21,707.9,M,49.3,M,,*58

$GNRMC,071132.864,A,3717.8298,N,00340.9426,W,2.78,224.63,280623,,,A*68

$GNGGA,071132.864,3717.8298,N,00340.9426,W,1,8,1.20,708.1,M,49.3,M,,*50

$GNRMC,071133.264,A,3717.8295,N,00340.9427,W,2.50,221.77,280623,,,A*65

$GNGGA,071133.264,3717.8295,N,00340.9427,W,1,8,1.21,708.2,M,49.3,M,,*55

$GNRMC,071133.664,A,3717.8294,N,00340.9430,W,2.79,223.37,280623,,,A*6B

$GNGGA,071133.664,3717.8294,N,00340.9430,W,1,8,1.21,708.3,M,49.3,M,,*57

$GNRMC,071134.064,A,3717.8292,N,00340.9432,W,2.45,228.43,280623,,,A*69

$GNGGA,071134.064,3717.8292,N,00340.9432,W,1,8,1.20,708.4,M,49.3,M,,*54

$GNRMC,071134.464,A,3717.8291,N,00340.9436,W,2.49,240.14,280623,,,A*6A

$GNGGA,071134.464,3717.8291,N,00340.9436,W,1,8,1.21,708.4,M,49.3,M,,*56

$GNRMC,071134.864,A,3717.8290,N,00340.9440,W,2.65,247.28,280623,,,A*60

$GNGGA,071134.864,3717.8290,N,00340.9440,W,1,8,1.21,708.6,M,49.3,M,,*58

$GNRMC,071135.264,A,3717.8290,N,00340.9444,W,3.13,255.36,280623,,,A*63

$GNGGA,071135.264,3717.8290,N,00340.9444,W,1,8,1.21,708.7,M,49.3,M,,*56

$GNRMC,071135.664,A,3717.8288,N,00340.9448,W,3.06,247.61,280623,,,A*67

$GNGGA,071135.664,3717.8288,N,00340.9448,W,1,8,1.21,708.8,M,49.3,M,,*58

$GNRMC,071136.064,A,3717.8286,N,00340.9450,W,3.01,238.97,280623,,,A*63

$GNGGA,071136.064,3717.8286,N,00340.9450,W,1,8,1.20,708.9,M,49.3,M,,*5A

$GNRMC,071136.464,A,3717.8285,N,00340.9454,W,2.86,244.11,280623,,,A*6B

$GNGGA,071136.464,3717.8285,N,00340.9454,W,1,8,1.20,708.9,M,49.3,M,,*59

$GNRMC,071136.864,A,3717.8286,N,00340.9457,W,2.46,258.13,280623,,,A*64

$GNGGA,071136.864,3717.8286,N,00340.9457,W,1,8,1.21,708.9,M,49.3,M,,*54

$GNRMC,071137.264,A,3717.8287,N,00340.9461,W,2.52,258.03,280623,,,A*6F

$GNGGA,071137.264,3717.8287,N,00340.9461,W,1,8,1.21,708.9,M,49.3,M,,*5B

$GNRMC,071137.664,A,3717.8288,N,00340.9467,W,3.14,266.87,280623,,,A*60

$GNGGA,071137.664,3717.8288,N,00340.9467,W,1,8,1.20,708.9,M,49.3,M,,*57

$GNRMC,071138.064,A,3717.8289,N,00340.9472,W,3.19,274.00,280623,,,A*6D

$GNGGA,071138.064,3717.8289,N,00340.9472,W,1,8,1.20,708.8,M,49.3,M,,*5A

$GNRMC,071138.464,A,3717.8291,N,00340.9478,W,2.91,280.06,280623,,,A*66

$GNGGA,071138.464,3717.8291,N,00340.9478,W,1,8,1.20,708.6,M,49.3,M,,*53

$GNRMC,071138.864,A,3717.8293,N,00340.9483,W,2.68,288.86,280623,,,A*6A

$GNGGA,071138.864,3717.8293,N,00340.9483,W,1,8,1.21,708.4,M,49.3,M,,*5A

$GNRMC,071139.264,A,3717.8294,N,00340.9486,W,2.26,299.24,280623,,,A*61

$GNGGA,071139.264,3717.8294,N,00340.9486,W,1,8,1.20,708.3,M,49.3,M,,*55

$GNRMC,071139.664,A,3717.8297,N,00340.9488,W,2.58,321.66,280623,,,A*65

$GNGGA,071139.664,3717.8297,N,00340.9488,W,1,8,1.20,708.2,M,49.3,M,,*5D

$GNRMC,071140.064,A,3717.8298,N,00340.9493,W,2.64,318.38,280623,,,A*66

$GNGGA,071140.064,3717.8298,N,00340.9493,W,1,8,1.21,708.2,M,49.3,M,,*51

$GNRMC,071140.464,A,3717.8301,N,00340.9494,W,2.69,326.89,280623,,,A*6E

$GNGGA,071140.464,3717.8301,N,00340.9494,W,1,8,1.21,708.1,M,49.3,M,,*50

$GNRMC,071140.864,A,3717.8302,N,00340.9497,W,2.67,319.09,280623,,,A*68

$GNGGA,071140.864,3717.8302,N,00340.9497,W,1,8,1.20,708.1,M,49.3,M,,*5D

$GNRMC,071141.264,A,3717.8304,N,00340.9499,W,2.70,308.44,280623,,,A*64

$GNGGA,071141.264,3717.8304,N,00340.9499,W,1,8,1.20,708.0,M,49.3,M,,*5F

$GNRMC,071141.664,A,3717.8307,N,00340.9503,W,3.07,310.86,280623,,,A*67

$GNGGA,071141.664,3717.8307,N,00340.9503,W,1,8,1.21,707.9,M,49.3,M,,*5D

$GNRMC,071142.064,A,3717.8309,N,00340.9507,W,3.30,304.70,280623,,,A*60

$GNGGA,071142.064,3717.8309,N,00340.9507,W,1,8,1.20,707.9,M,49.3,M,,*53

$GNRMC,071142.464,A,3717.8310,N,00340.9510,W,3.09,300.98,280623,,,A*62

$GNGGA,071142.464,3717.8310,N,00340.9510,W,1,8,1.21,707.8,M,49.3,M,,*59

$GNRMC,071142.864,A,3717.8311,N,00340.9516,W,3.48,294.16,280623,,,A*66

$GNGGA,071142.864,3717.8311,N,00340.9516,W,1,6,2.05,707.7,M,49.3,M,,*56

$GNRMC,071143.264,A,3717.8313,N,00340.9518,W,3.07,308.42,280623,,,A*6F

$GNGGA,071143.264,3717.8313,N,00340.9518,W,1,5,2.45,707.7,M,49.3,M,,*56

$GNRMC,071143.664,A,3717.8318,N,00340.9521,W,3.32,318.63,280623,,,A*6E

$GNGGA,071143.664,3717.8318,N,00340.9521,W,1,4,5.71,707.6,M,49.3,M,,*53

$GNRMC,071144.064,A,3717.8320,N,00340.9520,W,2.94,327.33,280623,,,A*61

$GNGGA,071144.064,3717.8320,N,00340.9520,W,1,4,5.70,707.5,M,49.3,M,,*5A

$GNRMC,071144.464,A,3717.8324,N,00340.9523,W,2.97,326.97,280623,,,A*6E

$GNGGA,071144.464,3717.8324,N,00340.9523,W,1,4,5.71,707.5,M,49.3,M,,*58

$GNRMC,071144.864,A,3717.8327,N,00340.9524,W,2.94,332.96,280623,,,A*61

$GNGGA,071144.864,3717.8327,N,00340.9524,W,1,4,5.71,707.4,M,49.3,M,,*51

$GNRMC,071145.264,A,3717.8328,N,00340.9526,W,2.72,329.59,280623,,,A*66

$GNGGA,071145.264,3717.8328,N,00340.9526,W,1,5,1.32,707.5,M,49.3,M,,*54

$GNRMC,071145.664,A,3717.8327,N,00340.9528,W,2.33,313.87,280623,,,A*6C

$GNGGA,071145.664,3717.8327,N,00340.9528,W,1,6,1.28,707.4,M,49.3,M,,*58

$GNRMC,071146.064,A,3717.8329,N,00340.9530,W,2.30,312.43,280623,,,A*64

$GNGGA,071146.064,3717.8329,N,00340.9530,W,1,6,1.28,707.4,M,49.3,M,,*5A

$GNRMC,071146.464,A,3717.8325,N,00340.9529,W,1.82,284.63,280623,,,A*62

$GNGGA,071146.464,3717.8325,N,00340.9529,W,1,6,1.28,707.4,M,49.3,M,,*5A

$GNRMC,071146.864,A,3717.8325,N,00340.9531,W,1.83,277.73,280623,,,A*6B

$GNGGA,071146.864,3717.8325,N,00340.9531,W,1,5,1.34,707.4,M,49.3,M,,*51

$GNRMC,071147.264,A,3717.8323,N,00340.9532,W,1.51,268.96,280623,,,A*6F

$GNGGA,071147.264,3717.8323,N,00340.9532,W,1,5,1.34,707.3,M,49.3,M,,*58

$GNRMC,071147.664,A,3717.8322,N,00340.9533,W,1.52,254.89,280623,,,A*69

$GNGGA,071147.664,3717.8322,N,00340.9533,W,1,5,1.34,707.3,M,49.3,M,,*5C

$GNRMC,071148.064,A,3717.8320,N,00340.9533,W,1.26,244.71,280623,,,A*67

$GNGGA,071148.064,3717.8320,N,00340.9533,W,1,5,1.34,707.3,M,49.3,M,,*57

$GNRMC,071148.464,A,3717.8321,N,00340.9535,W,1.27,255.13,280623,,,A*61

$GNGGA,071148.464,3717.8321,N,00340.9535,W,1,5,1.34,707.2,M,49.3,M,,*55

$GNRMC,071148.864,A,3717.8320,N,00340.9537,W,1.54,247.84,280623,,,A*67

$GNGGA,071148.864,3717.8320,N,00340.9537,W,1,5,1.34,707.2,M,49.3,M,,*5A

$GNRMC,071149.264,A,3717.8319,N,00340.9539,W,1.59,249.90,280623,,,A*6E

$GNGGA,071149.264,3717.8319,N,00340.9539,W,1,5,1.34,707.2,M,49.3,M,,*55

$GNRMC,071149.664,A,3717.8318,N,00340.9539,W,1.45,222.52,280623,,,A*65

$GNGGA,071149.664,3717.8318,N,00340.9539,W,1,5,1.34,707.1,M,49.3,M,,*53

$GNRMC,071150.064,A,3717.8318,N,00340.9539,W,1.01,229.15,280623,,,A*63

$GNGGA,071150.064,3717.8318,N,00340.9539,W,1,5,1.34,707.1,M,49.3,M,,*5D

$GNRMC,071150.464,A,3717.8318,N,00340.9537,W,0.00,229.15,280623,,,A*69

$GNGGA,071150.464,3717.8318,N,00340.9537,W,1,5,1.34,707.0,M,49.3,M,,*56

$GNRMC,071150.864,A,3717.8316,N,00340.9535,W,0.00,169.11,280623,,,A*6A

$GNGGA,071150.864,3717.8316,N,00340.9535,W,1,5,1.34,707.0,M,49.3,M,,*56

$GNRMC,071151.264,A,3717.8312,N,00340.9531,W,1.44,157.93,280623,,,A*67

$GNGGA,071151.264,3717.8312,N,00340.9531,W,1,5,1.34,706.9,M,49.3,M,,*55

$GNRMC,071151.664,A,3717.8310,N,00340.9526,W,1.73,142.88,280623,,,A*6D

$GNGGA,071151.664,3717.8310,N,00340.9526,W,1,5,1.34,706.8,M,49.3,M,,*54

$GNRMC,071152.064,A,3717.8310,N,00340.9525,W,1.49,139.37,280623,,,A*6A

$GNGGA,071152.064,3717.8310,N,00340.9525,W,1,5,1.34,706.8,M,49.3,M,,*52

$GNRMC,071152.464,A,3717.8312,N,00340.9523,W,1.28,123.93,280623,,,A*68

$GNGGA,071152.464,3717.8312,N,00340.9523,W,1,4,2.25,706.7,M,49.3,M,,*5F

$GNRMC,071152.864,A,3717.8311,N,00340.9520,W,1.46,121.36,280623,,,A*61

$GNGGA,071152.864,3717.8311,N,00340.9520,W,1,4,2.26,706.6,M,49.3,M,,*51

$GNRMC,071153.264,A,3717.8313,N,00340.9518,W,1.39,103.30,280623,,,A*6D

$GNGGA,071153.264,3717.8313,N,00340.9518,W,1,4,2.25,706.5,M,49.3,M,,*53

$GNRMC,071153.664,A,3717.8314,N,00340.9515,W,1.46,99.34,280623,,,A*5D

$GNGGA,071153.664,3717.8314,N,00340.9515,W,1,4,2.25,706.4,M,49.3,M,,*5C

$GNRMC,071154.064,A,3717.8315,N,00340.9509,W,1.89,93.86,280623,,,A*50

$GNGGA,071154.064,3717.8315,N,00340.9509,W,1,4,2.25,706.4,M,49.3,M,,*51

$GNRMC,071154.464,A,3717.8318,N,00340.9513,W,1.08,89.75,280623,,,A*5C

$GNGGA,071154.464,3717.8318,N,00340.9513,W,1,4,2.25,706.3,M,49.3,M,,*54

$GNRMC,071154.864,A,3717.8318,N,00340.9512,W,0.00,97.63,280623,,,A*50

$GNGGA,071154.864,3717.8318,N,00340.9512,W,1,5,1.34,706.2,M,49.3,M,,*5A

$GNRMC,071155.264,A,3717.8321,N,00340.9512,W,0.00,97.63,280623,,,A*51

$GNGGA,071155.264,3717.8321,N,00340.9512,W,1,5,1.34,706.1,M,49.3,M,,*58

$GNRMC,071155.664,A,3717.8320,N,00340.9513,W,1.03,267.92,280623,,,A*64

$GNGGA,071155.664,3717.8320,N,00340.9513,W,1,4,5.76,706.1,M,49.3,M,,*5F

$GNRMC,071156.064,A,3717.8315,N,00340.9512,W,1.63,230.93,280623,,,A*63

$GNGGA,071156.064,3717.8315,N,00340.9512,W,1,4,5.76,706.1,M,49.3,M,,*5D

$GNRMC,071156.464,A,3717.8309,N,00340.9511,W,2.00,214.44,280623,,,A*63

$GNGGA,071156.464,3717.8309,N,00340.9511,W,1,3,26.46,706.1,M,49.3,M,,*62

$GNRMC,071156.864,A,3717.8304,N,00340.9506,W,2.06,202.05,280623,,,A*60

$GNGGA,071156.864,3717.8304,N,00340.9506,W,1,3,26.45,706.1,M,49.3,M,,*66

$GNRMC,071157.264,V,,,,,1.22,151.88,280623,,,E*54

$GNGGA,071157.264,3717.830486,N,00340.949617,W,6,2,99.99,706.049,M,49.315,M,,*66

$GNRMC,071157.664,V,,,,,2.04,137.30,280623,,,N*5F

$GNGGA,071157.664,,,,,0,0,,,M,,M,,*57

$GNRMC,071158.064,V,,,,,0.09,137.30,280623,,,N*59

$GNGGA,071158.064,,,,,0,0,,,M,,M,,*5E

$GNRMC,071158.464,V,,,,,0.62,145.85,280623,,,N*5B

$GNGGA,071158.464,,,,,0,0,,,M,,M,,*5A

$GNRMC,071158.864,V,,,,,0.12,145.85,280623,,,N*50

$GNGGA,071158.864,,,,,0,0,,,M,,M,,*56

$GNRMC,071159.264,V,,,,,1.24,47.51,280623,,,N*65

$GNGGA,071159.264,,,,,0,0,,,M,,M,,*5D

$GNRMC,071159.664,V,,,,,0.61,232.05,280623,,,N*50

$GNGGA,071159.664,,,,,0,0,,,M,,M,,*59

$GNRMC,071200.064,V,,,,,0.26,232.05,280623,,,N*5A

$GNGGA,071200.064,,,,,0,0,,,M,,M,,*50

$GNRMC,071200.464,V,,,,,0.21,232.05,280623,,,N*59

$GNGGA,071200.464,,,,,0,0,,,M,,M,,*54

$GNRMC,071200.864,V,,,,,0.72,154.05,280623,,,N*50

$GNGGA,071200.864,,,,,0,0,,,M,,M,,*58

$GNRMC,071201.264,V,,,,,0.31,154.05,280623,,,N*5C

$GNGGA,071201.264,,,,,0,0,,,M,,M,,*53

$GNRMC,071201.664,V,,,,,0.43,154.05,280623,,,N*5D

$GNGGA,071201.664,,,,,0,0,,,M,,M,,*57

$PMTK001,220,3,400*28

$PMTK001,314,3*36

$GNRMC,072022.864,A,3717.8356,N,00340.9534,W,1.23,8.74,280623,,,D*68

$GNGGA,072022.864,3717.8356,N,00340.9534,W,2,7,1.19,711.2,M,49.3,M,,*5F

$GNRMC,072023.264,A,3717.8355,N,00340.9535,W,0.84,3.25,280623,,,D*62

$GNGGA,072023.264,3717.8355,N,00340.9535,W,2,6,1.56,711.2,M,49.3,M,,*5C

$GNRMC,072023.664,A,3717.8354,N,00340.9535,W,0.00,3.25,280623,,,D*6B

$GNGGA,072023.664,3717.8354,N,00340.9535,W,2,6,1.56,711.2,M,49.3,M,,*59

$GNRMC,072024.064,A,3717.8352,N,00340.9534,W,0.00,3.25,280623,,,D*6D

$GNGGA,072024.064,3717.8352,N,00340.9534,W,2,6,1.56,711.2,M,49.3,M,,*5F

$GNRMC,072024.464,A,3717.8352,N,00340.9534,W,0.00,3.25,280623,,,D*69

$GNGGA,072024.464,3717.8352,N,00340.9534,W,2,6,1.55,711.2,M,49.3,M,,*58

$GNRMC,072024.864,A,3717.8352,N,00340.9534,W,0.00,3.25,280623,,,D*65

$GNGGA,072024.864,3717.8352,N,00340.9534,W,2,6,1.55,711.2,M,49.3,M,,*54

$GNRMC,072025.264,A,3717.8352,N,00340.9534,W,0.00,3.25,280623,,,D*6E

$GNGGA,072025.264,3717.8352,N,00340.9534,W,2,6,1.55,711.2,M,49.3,M,,*5F

$GNRMC,072025.664,A,3717.8352,N,00340.9534,W,1.26,109.99,280623,,,D*63

$GNGGA,072025.664,3717.8352,N,00340.9534,W,2,6,1.55,711.2,M,49.3,M,,*5B

$GNRMC,072026.064,A,3717.8351,N,00340.9524,W,1.57,95.06,280623,,,D*50

$GNGGA,072026.064,3717.8351,N,00340.9524,W,2,6,1.56,711.2,M,49.3,M,,*5F

$GNRMC,072026.464,A,3717.8352,N,00340.9520,W,1.76,89.27,280623,,,D*5E

$GNGGA,072026.464,3717.8352,N,00340.9520,W,2,6,1.55,711.2,M,49.3,M,,*5F

$GNRMC,072026.864,A,3717.8351,N,00340.9520,W,1.43,92.81,280623,,,D*51

$GNGGA,072026.864,3717.8351,N,00340.9520,W,2,6,1.55,711.2,M,49.3,M,,*50

$GNRMC,072027.264,A,3717.8352,N,00340.9522,W,0.00,92.81,280623,,,D*5D

$GNGGA,072027.264,3717.8352,N,00340.9522,W,2,6,1.55,711.1,M,49.3,M,,*59

$GNRMC,072027.664,A,3717.8352,N,00340.9523,W,0.79,336.31,280623,,,D*60

$GNGGA,072027.664,3717.8352,N,00340.9523,W,2,5,1.56,711.1,M,49.3,M,,*5C

$GNRMC,072028.064,A,3717.8355,N,00340.9523,W,1.38,350.46,280623,,,D*6A

$GNGGA,072028.064,3717.8355,N,00340.9523,W,2,5,1.56,711.1,M,49.3,M,,*52

$GNRMC,072028.464,A,3717.8355,N,00340.9522,W,0.90,353.24,280623,,,D*6B

$GNGGA,072028.464,3717.8355,N,00340.9522,W,2,6,1.19,711.1,M,49.3,M,,*5F

$GNRMC,072028.864,A,3717.8357,N,00340.9519,W,1.18,9.50,280623,,,D*63

$GNGGA,072028.864,3717.8357,N,00340.9519,W,2,6,1.56,711.1,M,49.3,M,,*52

$GNRMC,072029.264,A,3717.8359,N,00340.9519,W,1.23,8.64,280623,,,D*68

$GNGGA,072029.264,3717.8359,N,00340.9519,W,2,6,1.56,711.1,M,49.3,M,,*57

$GNRMC,072029.664,A,3717.8362,N,00340.9517,W,1.50,14.69,280623,,,D*5E

$GNGGA,072029.664,3717.8362,N,00340.9517,W,2,4,2.04,711.1,M,49.3,M,,*53

$GNRMC,072030.064,A,3717.8363,N,00340.9515,W,1.16,23.51,280623,,,D*5E

$GNGGA,072030.064,3717.8363,N,00340.9515,W,2,4,2.04,711.2,M,49.3,M,,*5D

$GNRMC,072030.464,A,3717.8366,N,00340.9511,W,1.61,39.40,280623,,,D*50

$GNGGA,072030.464,3717.8366,N,00340.9511,W,2,5,2.04,711.2,M,49.3,M,,*59

$GNRMC,072030.864,A,3717.8366,N,00340.9509,W,1.12,51.31,280623,,,D*59

$GNGGA,072030.864,3717.8366,N,00340.9509,W,2,4,2.04,711.2,M,49.3,M,,*5D

$GNRMC,072031.264,A,3717.8368,N,00340.9509,W,0.81,19.11,280623,,,D*59

$GNGGA,072031.264,3717.8368,N,00340.9509,W,2,4,2.04,711.3,M,49.3,M,,*59

$GNRMC,072031.664,A,3717.8367,N,00340.9510,W,0.00,19.11,280623,,,D*53

$GNGGA,072031.664,3717.8367,N,00340.9510,W,2,4,2.04,711.3,M,49.3,M,,*5A

$GNRMC,072032.064,A,3717.8367,N,00340.9509,W,0.00,19.11,280623,,,D*5E

$GNGGA,072032.064,3717.8367,N,00340.9509,W,2,4,2.04,711.3,M,49.3,M,,*57

$GNRMC,072032.464,A,3717.8366,N,00340.9507,W,0.00,19.11,280623,,,D*55

$GNGGA,072032.464,3717.8366,N,00340.9507,W,2,4,2.04,711.4,M,49.3,M,,*5B

$GNRMC,072032.864,A,3717.8366,N,00340.9507,W,0.96,219.67,280623,,,D*65

$GNGGA,072032.864,3717.8366,N,00340.9507,W,2,4,2.04,711.4,M,49.3,M,,*57

$GNRMC,072033.264,A,3717.8367,N,00340.9510,W,1.38,243.34,280623,,,D*65

$GNGGA,072033.264,3717.8367,N,00340.9510,W,2,4,2.04,711.5,M,49.3,M,,*5A

$GNRMC,072033.664,A,3717.8370,N,00340.9511,W,1.55,260.84,280623,,,D*67

$GNGGA,072033.664,3717.8370,N,00340.9511,W,2,4,2.04,711.5,M,49.3,M,,*59

$GNRMC,072034.064,A,3717.8372,N,00340.9512,W,1.51,265.17,280623,,,D*6C

$GNGGA,072034.064,3717.8372,N,00340.9512,W,2,4,2.04,711.6,M,49.3,M,,*5A

$GNRMC,072034.464,A,3717.8375,N,00340.9512,W,1.44,270.72,280623,,,D*6C

$GNGGA,072034.464,3717.8375,N,00340.9512,W,2,4,2.04,711.6,M,49.3,M,,*59

$GNRMC,072034.864,A,3717.8378,N,00340.9515,W,1.71,276.78,280623,,,D*60

$GNGGA,072034.864,3717.8378,N,00340.9515,W,2,4,2.04,711.6,M,49.3,M,,*5F

$GNRMC,072035.264,A,3717.8381,N,00340.9516,W,1.61,283.96,280623,,,D*65

$GNGGA,072035.264,3717.8381,N,00340.9516,W,2,3,2.77,711.7,M,49.3,M,,*53

$GNRMC,072035.664,A,3717.8391,N,00340.9516,W,1.32,334.46,280623,,,D*66

$GNGGA,072035.664,3717.8391,N,00340.9516,W,2,3,2.77,711.7,M,49.3,M,,*56

$GNRMC,072036.064,A,3717.8402,N,00340.9517,W,2.06,348.88,280623,,,D*62

$GNGGA,072036.064,3717.8402,N,00340.9517,W,2,3,2.77,711.7,M,49.3,M,,*5F

$GNRMC,072036.464,V,,,,,2.08,352.91,280623,,,E*55

$GNGGA,072036.464,3717.840517,N,00340.951614,W,6,2,99.99,711.675,M,49.315,M,,*6E

$GNRMC,072036.864,V,,,,,0.14,352.91,280623,,,N*5D

$GNGGA,072036.864,,,,,0,0,,,M,,M,,*5C

$GNRMC,072037.264,V,,,,,0.07,352.91,280623,,,N*54

$GNGGA,072037.264,,,,,0,0,,,M,,M,,*57

$GNRMC,072037.664,V,,,,,0.03,352.91,280623,,,N*54

$GNGGA,072037.664,,,,,0,0,,,M,,M,,*53

$GNRMC,072038.064,V,,,,,0.40,352.91,280623,,,N*5A

$GNGGA,072038.064,,,,,0,0,,,M,,M,,*5A

$GNRMC,072038.464,A,3717.8405,N,00340.9536,W,0.74,270.70,280623,,,D*66

$GNGGA,072038.464,3717.8405,N,00340.9536,W,2,3,99.99,711.6,M,49.3,M,,*62

$GNRMC,072038.864,A,3717.8412,N,00340.9539,W,0.77,317.35,280623,,,D*61

$GNGGA,072038.864,3717.8412,N,00340.9539,W,2,3,99.99,711.6,M,49.3,M,,*67

$GNRMC,072039.264,V,,,,,0.82,309.72,280623,,,E*5F

$GNGGA,072039.264,3717.841182,N,00340.954454,W,6,2,99.99,711.573,M,49.315,M,,*68

$GNRMC,072039.664,V,,,,,0.00,309.72,280623,,,N*5A

$GNGGA,072039.664,,,,,0,0,,,M,,M,,*5D

$GNRMC,072040.064,V,,,,,0.46,309.72,280623,,,N*50

$GNGGA,072040.064,,,,,0,0,,,M,,M,,*55

$GNRMC,072040.464,V,,,,,1.00,336.26,280623,,,N*5A

$GNGGA,072040.464,,,,,0,0,,,M,,M,,*51

$GNRMC,072040.864,V,,,,,0.59,334.88,280623,,,N*5D

$GNGGA,072040.864,,,,,0,0,,,M,,M,,*5D

$GNRMC,072041.264,V,,,,,0.32,334.88,280623,,,N*5B

$GNGGA,072041.264,,,,,0,0,,,M,,M,,*56

$GNRMC,072041.664,V,,,,,0.37,334.88,280623,,,N*5A

$GNGGA,072041.664,,,,,0,0,,,M,,M,,*52

$GNRMC,072042.064,V,,,,,0.36,334.88,280623,,,N*5E

$GNGGA,072042.064,,,,,0,0,,,M,,M,,*57

$GNRMC,072042.464,V,,,,,0.08,334.88,280623,,,N*57

$GNGGA,072042.464,,,,,0,0,,,M,,M,,*53

$GNRMC,072042.864,V,,,,,0.12,334.88,280623,,,N*50

$GNGGA,072042.864,,,,,0,0,,,M,,M,,*5F

$GNRMC,072043.264,V,,,,,0.10,334.88,280623,,,N*59

$GNGGA,072043.264,,,,,0,0,,,M,,M,,*54

$GNRMC,072043.664,V,,,,,0.31,334.88,280623,,,N*5E

$GNGGA,072043.664,,,,,0,0,,,M,,M,,*50

$GNRMC,072044.064,V,,,,,0.30,334.88,280623,,,N*5E

$GNGGA,072044.064,,,,,0,0,,,M,,M,,*51

$GNRMC,072044.464,V,,,,,0.31,334.88,280623,,,N*5B

$GNGGA,072044.464,,,,,0,0,,,M,,M,,*55

$GNRMC,072044.864,V,,,,,0.05,334.88,280623,,,N*50

$GNGGA,072044.864,,,,,0,0,,,M,,M,,*59

$GNRMC,072045.264,V,,,,,0.11,334.88,280623,,,N*5E

$GNGGA,072045.264,,,,,0,0,,,M,,M,,*52

$GNRMC,072045.664,V,,,,,0.15,334.88,280623,,,N*5E

$GNGGA,072045.664,,,,,0,0,,,M,,M,,*56

$GNRMC,072046.064,V,,,,,0.33,334.88,280623,,,N*5F

$GNGGA,072046.064,,,,,0,0,,,M,,M,,*53

$GNRMC,072046.464,V,,,,,0.33,334.88,280623,,,N*5B

$GNGGA,072046.464,,,,,0,0,,,M,,M,,*57

$GNRMC,072046.864,V,,,,,0.32,334.88,280623,,,N*56

$GNGGA,072046.864,,,,,0,0,,,M,,M,,*5B

$GNRMC,072047.264,V,,,,,0.07,334.88,280623,,,N*5B

$GNGGA,072047.264,,,,,0,0,,,M,,M,,*50

$GNRMC,072047.664,V,,,,,0.12,334.88,280623,,,N*5B

$GNGGA,072047.664,,,,,0,0,,,M,,M,,*54

$GNRMC,072048.064,V,,,,,0.31,334.88,280623,,,N*53

$GNGGA,072048.064,,,,,0,0,,,M,,M,,*5D

$GNRMC,072048.464,V,,,,,0.06,334.88,280623,,,N*53

$GNGGA,072048.464,,,,,0,0,,,M,,M,,*59

$GNRMC,072048.864,V,,,,,0.05,334.88,280623,,,N*5C

$GNGGA,072048.864,,,,,0,0,,,M,,M,,*55

$GNRMC,072049.264,V,,,,,0.77,39.00,280623,,,N*6C

$GNGGA,072049.264,,,,,0,0,,,M,,M,,*5E

$GNRMC,072049.664,V,,,,,1.26,38.65,280623,,,N*6F

$GNGGA,072049.664,,,,,0,0,,,M,,M,,*5A

$GNRMC,072050.064,V,,,,,1.82,49.39,280623,,,N*60

$GNGGA,072050.064,,,,,0,0,,,M,,M,,*54

$GNRMC,072050.464,V,,,,,1.88,51.95,280623,,,N*61

$GNGGA,072050.464,,,,,0,0,,,M,,M,,*50

$GNRMC,072050.864,V,,,,,1.86,51.18,280623,,,N*66

$GNGGA,072050.864,,,,,0,0,,,M,,M,,*5C

$GNRMC,072051.264,V,,,,,1.79,41.34,280623,,,N*62

$GNGGA,072051.264,,,,,0,0,,,M,,M,,*57

$GNRMC,072051.664,V,,,,,0.25,41.34,280623,,,N*6E

$GNGGA,072051.664,,,,,0,0,,,M,,M,,*53

$GNRMC,072052.064,V,,,,,0.19,41.34,280623,,,N*64

$GNGGA,072052.064,,,,,0,0,,,M,,M,,*56

$GNRMC,072052.464,V,,,,,0.14,41.34,280623,,,N*6D

$GNGGA,072052.464,,,,,0,0,,,M,,M,,*52

$GNRMC,072052.864,V,,,,,0.11,41.34,280623,,,N*64

$GNGGA,072052.864,,,,,0,0,,,M,,M,,*5E

$GNRMC,072053.264,V,,,,,0.10,41.34,280623,,,N*6E

$GNGGA,072053.264,,,,,0,0,,,M,,M,,*55

$GNRMC,072053.664,V,,,,,0.05,41.34,280623,,,N*6E

$GNGGA,072053.664,,,,,0,0,,,M,,M,,*51

$GNRMC,072054.064,V,,,,,0.03,41.34,280623,,,N*69

$GNGGA,072054.064,,,,,0,0,,,M,,M,,*50

$GNRMC,072054.464,V,,,,,0.03,41.34,280623,,,N*6D

$GNGGA,072054.464,,,,,0,0,,,M,,M,,*54

$GNRMC,072054.864,V,,,,,0.03,41.34,280623,,,N*61

$GNGGA,072054.864,,,,,0,0,,,M,,M,,*58

$GNRMC,072055.264,V,,,,,0.23,41.34,280623,,,N*68

$GNGGA,072055.264,,,,,0,0,,,M,,M,,*53

$GNRMC,072055.664,V,,,,,0.25,41.34,280623,,,N*6A

$GNGGA,072055.664,,,,,0,0,,,M,,M,,*57

$GNRMC,072056.064,V,,,,,0.30,41.34,280623,,,N*6B

$GNGGA,072056.064,,,,,0,0,,,M,,M,,*52

$GNRMC,072056.464,V,,,,,0.49,41.34,280623,,,N*61

$GNGGA,072056.464,,,,,0,0,,,M,,M,,*56

$GNRMC,072056.864,V,,,,,0.10,41.34,280623,,,N*61

$GNGGA,072056.864,,,,,0,0,,,M,,M,,*5A

$GNRMC,072057.264,V,,,,,0.05,41.34,280623,,,N*6E

$GNGGA,072057.264,,,,,0,0,,,M,,M,,*51

$GNRMC,072057.664,V,,,,,0.06,41.34,280623,,,N*69

$GNGGA,072057.664,,,,,0,0,,,M,,M,,*55

$GNRMC,072058.064,V,,,,,0.08,41.34,280623,,,N*6E

$GNGGA,072058.064,,,,,0,0,,,M,,M,,*5C

$GNRMC,072058.464,V,,,,,0.05,41.34,280623,,,N*67

$GNGGA,072058.464,,,,,0,0,,,M,,M,,*58

$GNRMC,072058.864,V,,,,,0.22,41.34,280623,,,N*6E

$GNGGA,072058.864,,,,,0,0,,,M,,M,,*54

$GNRMC,072059.264,V,,,,,0.24,41.34,280623,,,N*63

$GNGGA,072059.264,,,,,0,0,,,M,,M,,*5F

$GNRMC,072059.664,V,,,,,0.17,41.34,280623,,,N*67

$GNGGA,072059.664,,,,,0,0,,,M,,M,,*5B

$GNRMC,072100.064,V,,,,,0.13,41.34,280623,,,N*68

$GNGGA,072100.064,,,,,0,0,,,M,,M,,*50

$GNRMC,072100.464,V,,,,,0.15,41.34,280623,,,N*6A

$GNGGA,072100.464,,,,,0,0,,,M,,M,,*54

$GNRMC,072100.864,A,3717.8261,N,00340.9543,W,0.00,41.34,280623,,,D*55

$GNGGA,072100.864,3717.8261,N,00340.9543,W,2,6,1.08,740.0,M,49.3,M,,*5C

$GNRMC,072101.264,A,3717.8268,N,00340.9541,W,0.00,41.34,280623,,,D*55

$GNGGA,072101.264,3717.8268,N,00340.9541,W,2,4,1.25,740.4,M,49.3,M,,*55

$GNRMC,072101.664,A,3717.8273,N,00340.9539,W,0.00,41.34,280623,,,D*54

$GNGGA,072101.664,3717.8273,N,00340.9539,W,2,4,1.25,740.5,M,49.3,M,,*55

$GNRMC,072102.064,A,3717.8273,N,00340.9539,W,0.00,41.34,280623,,,D*51

$GNGGA,072102.064,3717.8273,N,00340.9539,W,2,4,1.25,740.5,M,49.3,M,,*50

$GNRMC,072102.464,A,3717.8273,N,00340.9539,W,1.20,216.04,280623,,,D*65

$GNGGA,072102.464,3717.8273,N,00340.9539,W,2,4,1.25,740.5,M,49.3,M,,*54

$GNRMC,072102.864,A,3717.8278,N,00340.9544,W,1.68,220.26,280623,,,D*61

$GNGGA,072102.864,3717.8278,N,00340.9544,W,2,4,1.25,740.8,M,49.3,M,,*54

$GNRMC,072103.264,A,3717.8279,N,00340.9547,W,1.70,218.83,280623,,,D*65

$GNGGA,072103.264,3717.8279,N,00340.9547,W,2,4,1.25,741.0,M,49.3,M,,*54

$GNRMC,072103.664,A,3717.8281,N,00340.9548,W,1.64,220.13,280623,,,D*6E

$GNGGA,072103.664,3717.8281,N,00340.9548,W,2,4,1.25,741.1,M,49.3,M,,*59

$GNRMC,072104.064,A,3717.8282,N,00340.9551,W,1.41,217.80,280623,,,D*6D

$GNGGA,072104.064,3717.8282,N,00340.9551,W,2,4,1.25,741.3,M,49.3,M,,*51

$GNRMC,072104.464,A,3717.8284,N,00340.9552,W,1.12,216.81,280623,,,D*6A

$GNGGA,072104.464,3717.8284,N,00340.9552,W,2,4,1.25,741.4,M,49.3,M,,*57

$GNRMC,072104.864,A,3717.8286,N,00340.9551,W,0.00,210.36,280623,,,D*6F

$GNGGA,072104.864,3717.8286,N,00340.9551,W,2,4,1.25,741.5,M,49.3,M,,*5B

$GNRMC,072105.264,A,3717.8287,N,00340.9548,W,0.00,210.36,280623,,,D*6D

$GNGGA,072105.264,3717.8287,N,00340.9548,W,2,4,1.25,741.8,M,49.3,M,,*54

$GNRMC,072105.664,A,3717.8288,N,00340.9544,W,0.00,133.51,280623,,,D*69

$GNGGA,072105.664,3717.8288,N,00340.9544,W,2,4,1.25,742.1,M,49.3,M,,*59

$GNRMC,072106.064,A,3717.8288,N,00340.9544,W,1.01,110.45,280623,,,D*68

$GNGGA,072106.064,3717.8288,N,00340.9544,W,2,4,1.25,742.1,M,49.3,M,,*5C

$GNRMC,072106.464,A,3717.8290,N,00340.9526,W,1.78,102.02,280623,,,D*6F

$GNGGA,072106.464,3717.8290,N,00340.9526,W,2,3,2.77,743.4,M,49.3,M,,*52

$GNRMC,072106.864,V,,,,,1.56,95.56,280623,,,E*60

$GNGGA,072106.864,3717.829452,N,00340.952644,W,6,2,99.99,743.786,M,49.315,M,,*63

$GNRMC,072107.264,A,3717.8299,N,00340.9533,W,0.10,95.56,280623,,,D*54

$GNGGA,072107.264,3717.8299,N,00340.9533,W,2,3,4.24,738.7,M,49.3,M,,*57

$GNRMC,072107.664,V,,,,,0.31,95.56,280623,,,E*6F

$GNGGA,072107.664,3717.830285,N,00340.953563,W,6,2,99.99,739.031,M,49.315,M,,*69

$GNRMC,072108.064,A,3717.8309,N,00340.9542,W,0.33,95.56,280623,,,D*56

$GNGGA,072108.064,3717.8309,N,00340.9542,W,2,3,4.24,735.2,M,49.3,M,,*5C

$GNRMC,072108.464,V,,,,,1.08,336.52,280623,,,E*57

$GNGGA,072108.464,3717.831755,N,00340.954546,W,6,2,99.99,735.549,M,49.315,M,,*6B

$GNRMC,072108.864,A,3717.8325,N,00340.9558,W,0.41,336.52,280623,,,D*60

$GNGGA,072108.864,3717.8325,N,00340.9558,W,2,3,4.24,725.2,M,49.3,M,,*50

$GNRMC,072109.264,V,,,,,0.69,338.81,280623,,,E*56

$GNGGA,072109.264,3717.832962,N,00340.955853,W,6,2,99.99,725.229,M,49.315,M,,*6D

$GNRMC,072109.664,A,3717.8333,N,00340.9563,W,0.17,338.81,280623,,,D*63

$GNGGA,072109.664,3717.8333,N,00340.9563,W,2,3,2.65,721.7,M,49.3,M,,*52

$GNRMC,072110.064,V,,,,,0.21,338.81,280623,,,E*50

$GNGGA,072110.064,3717.833525,N,00340.956307,W,6,2,99.99,721.715,M,49.315,M,,*6E

$GNRMC,072110.464,A,3717.8339,N,00340.9566,W,0.17,338.81,280623,,,D*66

$GNGGA,072110.464,3717.8339,N,00340.9566,W,2,3,2.65,719.2,M,49.3,M,,*59

$GNRMC,072110.864,V,,,,,0.15,338.81,280623,,,E*5F

$GNGGA,072110.864,3717.833975,N,00340.956657,W,6,2,99.99,719.173,M,49.315,M,,*62

$GNRMC,072111.264,A,3717.8340,N,00340.9569,W,0.12,338.81,280623,,,D*65

$GNGGA,072111.264,3717.8340,N,00340.9569,W,2,3,2.65,717.7,M,49.3,M,,*54

$GNRMC,072111.664,A,3717.8340,N,00340.9571,W,0.15,338.81,280623,,,D*6F

$GNGGA,072111.664,3717.8340,N,00340.9571,W,2,3,2.65,716.5,M,49.3,M,,*5A

$GNRMC,072112.064,A,3717.8339,N,00340.9574,W,0.36,338.81,280623,,,D*60

$GNGGA,072112.064,3717.8339,N,00340.9574,W,2,3,2.65,715.2,M,49.3,M,,*50

$GNRMC,072112.464,A,3717.8337,N,00340.9577,W,0.40,338.81,280623,,,D*68

$GNGGA,072112.464,3717.8337,N,00340.9577,W,2,3,2.65,712.6,M,49.3,M,,*5A

$GNRMC,072112.864,V,,,,,0.41,338.81,280623,,,E*5C

$GNGGA,072112.864,3717.833625,N,00340.957761,W,6,2,99.99,710.919,M,49.315,M,,*62

$GNRMC,072113.264,V,,,,,0.10,338.81,280623,,,N*58

$GNGGA,072113.264,,,,,0,0,,,M,,M,,*50

$GNRMC,072113.664,V,,,,,0.07,338.81,280623,,,N*5A

$GNGGA,072113.664,,,,,0,0,,,M,,M,,*54

$GNRMC,072114.064,V,,,,,0.05,338.81,280623,,,N*59

$GNGGA,072114.064,,,,,0,0,,,M,,M,,*55

$GNRMC,072114.464,V,,,,,0.06,338.81,280623,,,N*5E

$GNGGA,072114.464,,,,,0,0,,,M,,M,,*51

$GNRMC,072114.864,V,,,,,0.05,338.81,280623,,,N*51

$GNGGA,072114.864,,,,,0,0,,,M,,M,,*5D

$GNRMC,072115.264,A,3717.8322,N,00340.9572,W,0.05,338.81,280623,,,D*69

$GNGGA,072115.264,3717.8322,N,00340.9572,W,2,3,2.65,706.4,M,49.3,M,,*5D

$GNRMC,072115.664,A,3717.8322,N,00340.9573,W,0.05,338.81,280623,,,D*6C

$GNGGA,072115.664,3717.8322,N,00340.9573,W,2,3,2.65,706.3,M,49.3,M,,*5F

$GNRMC,072116.064,A,3717.8323,N,00340.9572,W,0.00,338.81,280623,,,D*6C

$GNGGA,072116.064,3717.8323,N,00340.9572,W,2,4,2.59,706.4,M,49.3,M,,*55

$GNRMC,072116.464,A,3717.8324,N,00340.9570,W,0.00,338.81,280623,,,D*6D

$GNGGA,072116.464,3717.8324,N,00340.9570,W,2,4,2.60,706.5,M,49.3,M,,*5F

$GNRMC,072116.864,A,3717.8324,N,00340.9571,W,0.17,338.81,280623,,,D*66

$GNGGA,072116.864,3717.8324,N,00340.9571,W,2,3,3.99,706.6,M,49.3,M,,*51

$GNRMC,072117.264,A,3717.8325,N,00340.9572,W,0.19,338.81,280623,,,D*61

$GNGGA,072117.264,3717.8325,N,00340.9572,W,2,3,3.99,707.2,M,49.3,M,,*5D

$GNRMC,072117.664,A,3717.8322,N,00340.9573,W,0.24,338.81,280623,,,D*6D

$GNGGA,072117.664,3717.8322,N,00340.9573,W,2,3,3.99,707.5,M,49.3,M,,*58

$GNRMC,072118.064,A,3717.8326,N,00340.9576,W,0.28,338.81,280623,,,D*69

$GNGGA,072118.064,3717.8326,N,00340.9576,W,2,3,4.00,707.8,M,49.3,M,,*5A

$GNRMC,072118.464,A,3717.8330,N,00340.9567,W,0.00,338.81,280623,,,D*60

$GNGGA,072118.464,3717.8330,N,00340.9567,W,2,4,2.04,707.2,M,49.3,M,,*56

$GNRMC,072118.864,A,3717.8332,N,00340.9566,W,0.00,338.81,280623,,,D*6F

$GNGGA,072118.864,3717.8332,N,00340.9566,W,2,4,2.04,707.3,M,49.3,M,,*58

$GNRMC,072119.264,A,3717.8332,N,00340.9565,W,0.00,338.81,280623,,,D*67

$GNGGA,072119.264,3717.8332,N,00340.9565,W,2,4,2.04,707.4,M,49.3,M,,*57

$GNRMC,072119.664,A,3717.8332,N,00340.9565,W,0.00,338.81,280623,,,D*63

$GNGGA,072119.664,3717.8332,N,00340.9565,W,2,4,2.04,707.4,M,49.3,M,,*53

$GNRMC,072120.064,A,3717.8334,N,00340.9560,W,0.09,338.81,280623,,,D*65

$GNGGA,072120.064,3717.8334,N,00340.9560,W,2,3,2.77,706.9,M,49.3,M,,*53

$GNRMC,072120.464,V,,,,,0.10,338.81,280623,,,E*55

$GNGGA,072120.464,3717.833875,N,00340.954512,W,6,2,99.99,705.428,M,49.315,M,,*6A

$GNRMC,072120.864,A,3717.8341,N,00340.9535,W,0.10,338.81,280623,,,D*67

$GNGGA,072120.864,3717.8341,N,00340.9535,W,2,3,5.70,704.9,M,49.3,M,,*5B

$GNRMC,072121.264,V,,,,,0.13,338.81,280623,,,E*51

$GNGGA,072121.264,3717.834300,N,00340.952527,W,6,1,99.99,703.976,M,49.315,M,,*60

$GNRMC,072121.664,V,,,,,0.15,338.81,280623,,,N*58

$GNGGA,072121.664,,,,,0,0,,,M,,M,,*55

$GNRMC,072122.064,V,,,,,0.09,338.81,280623,,,N*50

$GNGGA,072122.064,,,,,0,0,,,M,,M,,*50

$GNRMC,072122.464,A,3717.8343,N,00340.9514,W,0.09,338.81,280623,,,D*60

$GNGGA,072122.464,3717.8343,N,00340.9514,W,2,3,3.68,703.1,M,49.3,M,,*54

$GNRMC,072122.864,V,,,,,0.10,338.81,280623,,,E*5B

$GNGGA,072122.864,3717.834055,N,00340.952046,W,6,2,99.99,703.330,M,49.315,M,,*63

$GNRMC,072123.264,A,3717.8339,N,00340.9524,W,0.08,338.81,280623,,,D*68

$GNGGA,072123.264,3717.8339,N,00340.9524,W,2,3,3.49,703.3,M,49.3,M,,*5C

$GNRMC,072123.664,A,3717.8334,N,00340.9537,W,0.00,338.81,280623,,,D*6B

$GNGGA,072123.664,3717.8334,N,00340.9537,W,2,4,2.04,703.3,M,49.3,M,,*58

$GNRMC,072124.064,A,3717.8338,N,00340.9544,W,0.00,338.81,280623,,,D*62

$GNGGA,072124.064,3717.8338,N,00340.9544,W,2,4,2.04,704.2,M,49.3,M,,*57

$GNRMC,072124.464,A,3717.8338,N,00340.9550,W,0.00,338.81,280623,,,D*63

$GNGGA,072124.464,3717.8338,N,00340.9550,W,2,4,2.04,704.3,M,49.3,M,,*57

$GNRMC,072124.864,A,3717.8338,N,00340.9550,W,0.00,338.81,280623,,,D*6F

$GNGGA,072124.864,3717.8338,N,00340.9550,W,2,4,2.04,704.3,M,49.3,M,,*5B

$GNRMC,072125.264,A,3717.8338,N,00340.9550,W,0.00,338.81,280623,,,D*64

$GNGGA,072125.264,3717.8338,N,00340.9550,W,2,4,2.04,704.3,M,49.3,M,,*50

$GNRMC,072125.664,A,3717.8338,N,00340.9550,W,0.00,338.81,280623,,,D*60

$GNGGA,072125.664,3717.8338,N,00340.9550,W,2,4,2.04,704.3,M,49.3,M,,*54

$GNRMC,072126.064,A,3717.8338,N,00340.9550,W,0.00,338.81,280623,,,D*65

$GNGGA,072126.064,3717.8338,N,00340.9550,W,2,4,2.04,704.3,M,49.3,M,,*51

$GNRMC,072126.464,A,3717.8338,N,00340.9550,W,0.00,338.81,280623,,,D*61

$GNGGA,072126.464,3717.8338,N,00340.9550,W,2,4,2.04,704.3,M,49.3,M,,*55

$GNRMC,072126.864,A,3717.8338,N,00340.9550,W,0.00,338.81,280623,,,D*6D

$GNGGA,072126.864,3717.8338,N,00340.9550,W,2,4,2.04,704.3,M,49.3,M,,*59

$GNRMC,072127.264,A,3717.8338,N,00340.9550,W,0.00,338.81,280623,,,D*66

$GNGGA,072127.264,3717.8338,N,00340.9550,W,2,4,2.04,704.3,M,49.3,M,,*52

$GNRMC,072127.664,A,3717.8338,N,00340.9550,W,0.00,338.81,280623,,,D*62

$GNGGA,072127.664,3717.8338,N,00340.9550,W,2,4,2.04,704.3,M,49.3,M,,*56

$GNRMC,072128.064,A,3717.8338,N,00340.9550,W,0.00,338.81,280623,,,D*6B

$GNGGA,072128.064,3717.8338,N,00340.9550,W,2,4,2.04,704.3,M,49.3,M,,*5F

$GNRMC,072128.464,A,3717.8338,N,00340.9550,W,0.00,338.81,280623,,,D*6F

$GNGGA,072128.464,3717.8338,N,00340.9550,W,2,5,1.36,704.3,M,49.3,M,,*58

$GNRMC,072128.864,A,3717.8338,N,00340.9550,W,0.00,338.81,280623,,,D*63

$GNGGA,072128.864,3717.8338,N,00340.9550,W,2,5,1.36,704.3,M,49.3,M,,*54

$GNRMC,072129.264,A,3717.8338,N,00340.9550,W,0.00,338.81,280623,,,D*68

$GNGGA,072129.264,3717.8338,N,00340.9550,W,2,5,1.36,704.3,M,49.3,M,,*5F

$GNRMC,072129.664,A,3717.8338,N,00340.9550,W,0.00,338.81,280623,,,D*6C

$GNGGA,072129.664,3717.8338,N,00340.9550,W,2,5,1.36,704.3,M,49.3,M,,*5B

$GNRMC,072130.064,A,3717.8338,N,00340.9550,W,0.00,338.81,280623,,,D*62

$GNGGA,072130.064,3717.8338,N,00340.9550,W,2,5,1.36,704.3,M,49.3,M,,*55

$GNRMC,072130.464,A,3717.8338,N,00340.9550,W,0.00,338.81,280623,,,D*66

$GNGGA,072130.464,3717.8338,N,00340.9550,W,2,5,1.36,704.3,M,49.3,M,,*51

$GNRMC,072130.864,A,3717.8338,N,00340.9550,W,0.00,338.81,280623,,,D*6A

$GNGGA,072130.864,3717.8338,N,00340.9550,W,2,5,1.36,704.3,M,49.3,M,,*5D

$GNRMC,072131.264,A,3717.8338,N,00340.9550,W,0.00,338.81,280623,,,D*61

$GNGGA,072131.264,3717.8338,N,00340.9550,W,2,5,1.36,704.3,M,49.3,M,,*56

$GNRMC,072131.664,A,3717.8338,N,00340.9550,W,0.00,338.81,280623,,,D*65

$GNGGA,072131.664,3717.8338,N,00340.9550,W,2,5,1.36,704.3,M,49.3,M,,*52

$GNRMC,072132.064,A,3717.8338,N,00340.9550,W,0.00,338.81,280623,,,D*60

$GNGGA,072132.064,3717.8338,N,00340.9550,W,2,5,1.36,704.3,M,49.3,M,,*57

$GNRMC,072132.464,A,3717.8338,N,00340.9550,W,0.80,124.47,280623,,,D*69

$GNGGA,072132.464,3717.8338,N,00340.9550,W,2,5,1.36,704.3,M,49.3,M,,*53

$GNRMC,072132.864,A,3717.8346,N,00340.9554,W,0.84,131.40,280623,,,D*6F

$GNGGA,072132.864,3717.8346,N,00340.9554,W,2,5,1.36,705.3,M,49.3,M,,*53

$GNRMC,072133.264,A,3717.8346,N,00340.9553,W,0.80,131.99,280623,,,D*63

$GNGGA,072133.264,3717.8346,N,00340.9553,W,2,5,1.36,705.0,M,49.3,M,,*5C

$GNRMC,072133.664,A,3717.8347,N,00340.9552,W,0.00,130.45,280623,,,D*6F

$GNGGA,072133.664,3717.8347,N,00340.9552,W,2,5,1.36,704.8,M,49.3,M,,*51

$GNRMC,072134.064,A,3717.8349,N,00340.9550,W,0.00,124.93,280623,,,D*6C

$GNGGA,072134.064,3717.8349,N,00340.9550,W,2,5,1.36,705.0,M,49.3,M,,*55

$GNRMC,072134.464,A,3717.8351,N,00340.9548,W,0.00,124.93,280623,,,D*68

$GNGGA,072134.464,3717.8351,N,00340.9548,W,2,5,1.36,705.1,M,49.3,M,,*50

$GNRMC,072134.864,A,3717.8351,N,00340.9548,W,0.00,124.93,280623,,,D*64

$GNGGA,072134.864,3717.8351,N,00340.9548,W,2,6,1.19,705.1,M,49.3,M,,*52

$GNRMC,072135.264,A,3717.8351,N,00340.9548,W,0.00,124.93,280623,,,D*6F

$GNGGA,072135.264,3717.8351,N,00340.9548,W,2,6,1.18,705.1,M,49.3,M,,*58

$GNRMC,072135.664,A,3717.8351,N,00340.9548,W,0.00,124.93,280623,,,D*6B

$GNGGA,072135.664,3717.8351,N,00340.9548,W,2,6,1.19,705.1,M,49.3,M,,*5D

$GNRMC,072136.064,A,3717.8351,N,00340.9548,W,0.00,124.93,280623,,,D*6E

$GNGGA,072136.064,3717.8351,N,00340.9548,W,2,6,1.19,705.1,M,49.3,M,,*58

$GNRMC,072136.464,A,3717.8351,N,00340.9548,W,0.00,124.93,280623,,,D*6A

$GNGGA,072136.464,3717.8351,N,00340.9548,W,2,6,1.18,705.1,M,49.3,M,,*5D

$GNRMC,072136.864,A,3717.8371,N,00340.9484,W,0.75,94.62,280623,,,D*53

$GNGGA,072136.864,3717.8371,N,00340.9484,W,2,6,1.18,697.3,M,49.3,M,,*5A

$GNRMC,072137.264,A,3717.8371,N,00340.9485,W,0.00,93.35,280623,,,D*5E

$GNGGA,072137.264,3717.8371,N,00340.9485,W,2,6,1.19,697.3,M,49.3,M,,*51

$GNRMC,072137.664,A,3717.8370,N,00340.9483,W,0.00,95.68,280623,,,D*53

$GNGGA,072137.664,3717.8370,N,00340.9483,W,2,6,1.19,697.6,M,49.3,M,,*57

$GNRMC,072138.064,A,3717.8369,N,00340.9484,W,0.00,102.18,280623,,,D*6D

$GNGGA,072138.064,3717.8369,N,00340.9484,W,2,6,1.19,697.6,M,49.3,M,,*51

$GNRMC,072138.464,A,3717.8369,N,00340.9484,W,0.00,102.18,280623,,,D*69

$GNGGA,072138.464,3717.8369,N,00340.9484,W,2,6,1.19,697.6,M,49.3,M,,*55

$GNRMC,072138.864,A,3717.8369,N,00340.9484,W,0.00,102.18,280623,,,D*65

$GNGGA,072138.864,3717.8369,N,00340.9484,W,2,6,1.19,697.6,M,49.3,M,,*59

$GNRMC,072139.264,A,3717.8369,N,00340.9484,W,0.00,102.18,280623,,,D*6E

$GNGGA,072139.264,3717.8369,N,00340.9484,W,2,6,1.19,697.6,M,49.3,M,,*52

$GNRMC,072139.664,A,3717.8369,N,00340.9484,W,0.00,102.18,280623,,,D*6A

$GNGGA,072139.664,3717.8369,N,00340.9484,W,2,6,1.19,697.6,M,49.3,M,,*56

$GNRMC,072140.064,A,3717.8369,N,00340.9484,W,0.00,102.18,280623,,,D*62

$GNGGA,072140.064,3717.8369,N,00340.9484,W,2,5,1.36,697.6,M,49.3,M,,*50

$GNRMC,072140.464,A,3717.8369,N,00340.9484,W,0.00,102.18,280623,,,D*66

$GNGGA,072140.464,3717.8369,N,00340.9484,W,2,5,1.36,697.6,M,49.3,M,,*54

$GNRMC,072140.864,A,3717.8369,N,00340.9484,W,0.00,102.18,280623,,,D*6A

$GNGGA,072140.864,3717.8369,N,00340.9484,W,2,5,1.36,697.6,M,49.3,M,,*58

$GNRMC,072141.264,A,3717.8369,N,00340.9484,W,0.00,102.18,280623,,,D*61

$GNGGA,072141.264,3717.8369,N,00340.9484,W,2,6,1.35,697.6,M,49.3,M,,*53

$GNRMC,072141.664,A,3717.8369,N,00340.9484,W,0.00,102.18,280623,,,D*65

$GNGGA,072141.664,3717.8369,N,00340.9484,W,2,6,1.35,697.6,M,49.3,M,,*57

$GNRMC,072142.064,A,3717.8369,N,00340.9484,W,0.00,102.18,280623,,,D*60

$GNGGA,072142.064,3717.8369,N,00340.9484,W,2,6,1.35,697.6,M,49.3,M,,*52

$GNRMC,072142.464,A,3717.8369,N,00340.9484,W,0.00,102.18,280623,,,D*64

$GNGGA,072142.464,3717.8369,N,00340.9484,W,2,5,2.02,697.6,M,49.3,M,,*52

$GNRMC,072142.864,A,3717.8369,N,00340.9484,W,0.00,102.18,280623,,,D*68

$GNGGA,072142.864,3717.8369,N,00340.9484,W,2,5,2.02,697.6,M,49.3,M,,*5E

$GNRMC,072143.264,A,3717.8369,N,00340.9484,W,0.00,102.18,280623,,,D*63

$GNGGA,072143.264,3717.8369,N,00340.9484,W,2,5,2.02,697.6,M,49.3,M,,*55

$GNRMC,072143.664,A,3717.8369,N,00340.9484,W,0.00,102.18,280623,,,D*67

$GNGGA,072143.664,3717.8369,N,00340.9484,W,2,5,2.02,697.6,M,49.3,M,,*51

$GNRMC,072144.064,A,3717.8369,N,00340.9484,W,0.00,102.18,280623,,,D*66

$GNGGA,072144.064,3717.8369,N,00340.9484,W,2,5,2.02,697.6,M,49.3,M,,*50

$GNRMC,072144.464,A,3717.8369,N,00340.9484,W,0.84,83.75,280623,,,D*5D

$GNGGA,072144.464,3717.8369,N,00340.9484,W,2,5,2.02,697.6,M,49.3,M,,*54

$GNRMC,072144.864,A,3717.8374,N,00340.9464,W,0.89,84.57,280623,,,D*59

$GNGGA,072144.864,3717.8374,N,00340.9464,W,2,5,2.02,697.1,M,49.3,M,,*5D

$GNRMC,072145.264,A,3717.8374,N,00340.9462,W,0.90,85.05,280623,,,D*5A

$GNGGA,072145.264,3717.8374,N,00340.9462,W,2,5,2.02,697.1,M,49.3,M,,*50

$GNRMC,072145.664,A,3717.8375,N,00340.9460,W,0.94,84.98,280623,,,D*5C

$GNGGA,072145.664,3717.8375,N,00340.9460,W,2,4,2.46,697.1,M,49.3,M,,*56

$GNRMC,072146.064,A,3717.8377,N,00340.9458,W,0.97,82.34,280623,,,D*53

$GNGGA,072146.064,3717.8377,N,00340.9458,W,2,3,2.78,697.2,M,49.3,M,,*53

$GNRMC,072146.464,V,,,,,0.91,75.42,280623,,,E*69

$GNGGA,072146.464,3717.837839,N,00340.945780,W,6,1,99.99,697.133,M,49.315,M,,*69

$GNRMC,072146.864,A,3717.8377,N,00340.9455,W,0.08,75.42,280623,,,D*59

$GNGGA,072146.864,3717.8377,N,00340.9455,W,2,3,4.99,699.6,M,49.3,M,,*55

$GNRMC,072147.264,V,,,,,0.08,75.42,280623,,,N*65

$GNGGA,072147.264,,,,,0,0,,,M,,M,,*51

$GNRMC,072147.664,A,3717.8376,N,00340.9451,W,0.12,75.42,280623,,,D*58

$GNGGA,072147.664,3717.8376,N,00340.9451,W,2,3,5.00,701.4,M,49.3,M,,*5C

$GNRMC,072148.064,A,3717.8377,N,00340.9452,W,0.18,75.42,280623,,,D*59

$GNGGA,072148.064,3717.8377,N,00340.9452,W,2,3,5.76,701.3,M,49.3,M,,*51

$GNRMC,072148.464,A,3717.8377,N,00340.9452,W,0.20,75.42,280623,,,D*56

$GNGGA,072148.464,3717.8377,N,00340.9452,W,2,3,5.76,701.2,M,49.3,M,,*54

$GNRMC,072148.864,A,3717.8377,N,00340.9452,W,0.30,75.42,280623,,,D*5B

$GNGGA,072148.864,3717.8377,N,00340.9452,W,2,3,5.76,701.1,M,49.3,M,,*5B

$GNRMC,072149.264,A,3717.8377,N,00340.9449,W,0.00,75.42,280623,,,D*59

$GNGGA,072149.264,3717.8377,N,00340.9449,W,2,4,2.94,701.0,M,49.3,M,,*57

$GNRMC,072149.664,A,3717.8376,N,00340.9448,W,0.43,75.42,280623,,,D*5A

$GNGGA,072149.664,3717.8376,N,00340.9448,W,2,3,7.70,701.0,M,49.3,M,,*5B

$GNRMC,072150.064,A,3717.8377,N,00340.9447,W,0.45,75.42,280623,,,D*5C

$GNGGA,072150.064,3717.8377,N,00340.9447,W,2,3,7.70,700.8,M,49.3,M,,*52

$GNRMC,072150.464,A,3717.8379,N,00340.9446,W,0.00,75.42,280623,,,D*56

$GNGGA,072150.464,3717.8379,N,00340.9446,W,2,4,2.17,700.7,M,49.3,M,,*55

$GNRMC,072150.864,A,3717.8381,N,00340.9445,W,0.00,75.42,280623,,,D*5E

$GNGGA,072150.864,3717.8381,N,00340.9445,W,2,4,2.17,700.6,M,49.3,M,,*5C

$GNRMC,072151.264,A,3717.8382,N,00340.9447,W,0.00,75.42,280623,,,D*54

$GNGGA,072151.264,3717.8382,N,00340.9447,W,2,4,2.17,700.4,M,49.3,M,,*54

$GNRMC,072151.664,A,3717.8382,N,00340.9447,W,0.00,75.42,280623,,,D*50

$GNGGA,072151.664,3717.8382,N,00340.9447,W,2,4,2.17,700.4,M,49.3,M,,*50

$GNRMC,072152.064,A,3717.8382,N,00340.9447,W,0.00,75.42,280623,,,D*55

$GNGGA,072152.064,3717.8382,N,00340.9447,W,2,4,2.04,700.4,M,49.3,M,,*57

$GNRMC,072152.464,A,3717.8382,N,00340.9447,W,0.00,75.42,280623,,,D*51

$GNGGA,072152.464,3717.8382,N,00340.9447,W,2,4,2.04,700.4,M,49.3,M,,*53

$GNRMC,072152.864,A,3717.8383,N,00340.9448,W,0.33,75.42,280623,,,D*53

$GNGGA,072152.864,3717.8383,N,00340.9448,W,2,3,2.78,700.2,M,49.3,M,,*5B

$GNRMC,072153.264,A,3717.8386,N,00340.9445,W,0.50,75.42,280623,,,D*55

$GNGGA,072153.264,3717.8386,N,00340.9445,W,2,3,2.78,700.2,M,49.3,M,,*58

$GNRMC,072153.664,A,3717.8398,N,00340.9447,W,0.64,51.27,280623,,,D*5E

$GNGGA,072153.664,3717.8398,N,00340.9447,W,2,3,2.78,700.4,M,49.3,M,,*57

$GNRMC,072154.064,A,3717.8406,N,00340.9455,W,0.66,22.40,280623,,,D*5B

$GNGGA,072154.064,3717.8406,N,00340.9455,W,2,3,2.78,700.5,M,49.3,M,,*54

$GNRMC,072154.464,A,3717.8417,N,00340.9464,W,0.99,4.99,280623,,,D*6D

$GNGGA,072154.464,3717.8417,N,00340.9464,W,2,4,2.68,700.8,M,49.3,M,,*59

$GNRMC,072154.864,A,3717.8420,N,00340.9466,W,1.07,0.03,280623,,,D*66

$GNGGA,072154.864,3717.8420,N,00340.9466,W,2,4,2.67,700.9,M,49.3,M,,*5D

$GNRMC,072155.264,A,3717.8420,N,00340.9468,W,1.01,355.89,280623,,,D*64

$GNGGA,072155.264,3717.8420,N,00340.9468,W,2,4,2.67,701.1,M,49.3,M,,*51

$GNRMC,072155.664,A,3717.8422,N,00340.9469,W,1.01,352.58,280623,,,D*68

$GNGGA,072155.664,3717.8422,N,00340.9469,W,2,3,2.78,701.2,M,49.3,M,,*5C

$GNRMC,072156.064,A,3717.8430,N,00340.9468,W,1.19,359.60,280623,,,D*66

$GNGGA,072156.064,3717.8430,N,00340.9468,W,2,3,2.78,701.4,M,49.3,M,,*5D

$GNRMC,072156.464,A,3717.8430,N,00340.9472,W,1.18,1.10,280623,,,D*61

$GNGGA,072156.464,3717.8430,N,00340.9472,W,2,3,2.78,701.4,M,49.3,M,,*52

$GNRMC,072156.864,A,3717.8431,N,00340.9477,W,1.15,357.25,280623,,,D*62

$GNGGA,072156.864,3717.8431,N,00340.9477,W,2,3,2.78,701.4,M,49.3,M,,*5A

$GNRMC,072157.264,A,3717.8431,N,00340.9479,W,0.71,130.29,280623,,,D*6B

$GNGGA,072157.264,3717.8431,N,00340.9479,W,2,3,2.78,701.5,M,49.3,M,,*5E

$GNRMC,072157.664,A,3717.8430,N,00340.9481,W,0.61,143.57,280623,,,D*65

$GNGGA,072157.664,3717.8430,N,00340.9481,W,2,3,2.78,701.4,M,49.3,M,,*5D

$GNRMC,072158.064,A,3717.8430,N,00340.9480,W,1.13,113.61,280623,,,D*69

$GNGGA,072158.064,3717.8430,N,00340.9480,W,2,3,2.78,701.4,M,49.3,M,,*55

$GNRMC,072158.464,A,3717.8429,N,00340.9476,W,1.47,114.33,280623,,,D*6D

$GNGGA,072158.464,3717.8429,N,00340.9476,W,2,3,2.78,701.4,M,49.3,M,,*50

$GNRMC,072158.864,A,3717.8427,N,00340.9471,W,1.95,117.03,280623,,,D*67

$GNGGA,072158.864,3717.8427,N,00340.9471,W,2,3,2.78,701.4,M,49.3,M,,*55

$GNRMC,072159.264,A,3717.8425,N,00340.9472,W,1.65,126.74,280623,,,D*60

$GNGGA,072159.264,3717.8425,N,00340.9472,W,2,3,2.78,701.4,M,49.3,M,,*5F

$GNRMC,072159.664,A,3717.8423,N,00340.9475,W,1.49,133.94,280623,,,D*61

$GNGGA,072159.664,3717.8423,N,00340.9475,W,2,3,2.78,701.4,M,49.3,M,,*5A

$GNRMC,072200.064,A,3717.8419,N,00340.9486,W,1.25,148.75,280623,,,D*64

$GNGGA,072200.064,3717.8419,N,00340.9486,W,2,4,1.36,701.6,M,49.3,M,,*5A

$GNRMC,072200.464,A,3717.8417,N,00340.9488,W,1.23,150.81,280623,,,D*64

$GNGGA,072200.464,3717.8417,N,00340.9488,W,2,4,1.36,701.7,M,49.3,M,,*5F

$GNRMC,072200.864,A,3717.8416,N,00340.9491,W,1.17,152.61,280623,,,D*6A

$GNGGA,072200.864,3717.8416,N,00340.9491,W,2,4,1.36,701.7,M,49.3,M,,*5A

$GNRMC,072201.264,A,3717.8412,N,00340.9505,W,1.10,163.86,280623,,,D*65

$GNGGA,072201.264,3717.8412,N,00340.9505,W,2,4,1.36,701.9,M,49.3,M,,*57

$GNRMC,072201.664,A,3717.8410,N,00340.9508,W,1.05,166.64,280623,,,D*63

$GNGGA,072201.664,3717.8410,N,00340.9508,W,2,3,1.60,701.9,M,49.3,M,,*58

$GNRMC,072202.064,V,,,,,1.02,170.40,280623,,,N*58

$GNGGA,072202.064,,,,,0,0,,,M,,M,,*51

$GNRMC,072202.464,V,,,,,0.00,170.40,280623,,,N*5F

$GNGGA,072202.464,,,,,0,0,,,M,,M,,*55

$GNRMC,072202.864,V,,,,,0.00,170.40,280623,,,N*53

$GNGGA,072202.864,,,,,0,0,,,M,,M,,*59

$GNRMC,072203.264,V,,,,,0.00,170.40,280623,,,N*58

$GNGGA,072203.264,,,,,0,0,,,M,,M,,*52

$GNRMC,072203.664,V,,,,,0.00,170.40,280623,,,N*5C

$GNGGA,072203.664,,,,,0,0,,,M,,M,,*56

$GNRMC,072204.064,V,,,,,0.01,170.40,280623,,,N*5C

$GNGGA,072204.064,,,,,0,0,,,M,,M,,*57

$GNRMC,072204.464,V,,,,,0.01,170.40,280623,,,N*58

$GNGGA,072204.464,,,,,0,0,,,M,,M,,*53

$GNRMC,072204.864,V,,,,,0.02,170.40,280623,,,N*57

$GNGGA,072204.864,,,,,0,0,,,M,,M,,*5F

$GNRMC,072205.264,V,,,,,0.05,170.40,280623,,,N*5B

$GNGGA,072205.264,,,,,0,0,,,M,,M,,*54

$GNRMC,072205.664,V,,,,,0.24,170.40,280623,,,N*5C

$GNGGA,072205.664,,,,,0,0,,,M,,M,,*50

$GNRMC,072206.064,V,,,,,0.22,170.40,280623,,,N*5F

$GNGGA,072206.064,,,,,0,0,,,M,,M,,*55

$GNRMC,072206.464,V,,,,,0.01,170.40,280623,,,N*5A

$GNGGA,072206.464,,,,,0,0,,,M,,M,,*51

$GNRMC,072206.864,V,,,,,0.02,170.40,280623,,,N*55

$GNGGA,072206.864,,,,,0,0,,,M,,M,,*5D

$GNRMC,072207.264,V,,,,,0.03,170.40,280623,,,N*5F

$GNGGA,072207.264,,,,,0,0,,,M,,M,,*56

$GNRMC,072207.664,V,,,,,0.04,170.40,280623,,,N*5C

$GNGGA,072207.664,,,,,0,0,,,M,,M,,*52

$GNRMC,072208.064,V,,,,,0.06,170.40,280623,,,N*57

$GNGGA,072208.064,,,,,0,0,,,M,,M,,*5B

$GNRMC,072208.464,V,,,,,0.06,170.40,280623,,,N*53

$GNGGA,072208.464,,,,,0,0,,,M,,M,,*5F

$GNRMC,072208.864,V,,,,,0.10,170.40,280623,,,N*58

$GNGGA,072208.864,,,,,0,0,,,M,,M,,*53

$GNRMC,072209.264,V,,,,,0.11,170.40,280623,,,N*52

$GNGGA,072209.264,,,,,0,0,,,M,,M,,*58

$GNRMC,072209.664,V,,,,,0.10,170.40,280623,,,N*57

