$PMTK001,220,3,1000*1D

$PMTK001,314,3*36

$GNRMC,150655.070,V,,,,,0.00,0.00,140423,,,N*56

$GNGGA,150655.070,,,,,0,0,,,M,,M,,*53

$GNRMC,150656.070,V,,,,,0.00,0.00,140423,,,N*55

$GNGGA,150656.070,,,,,0,0,,,M,,M,,*50

$GNRMC,150657.070,V,,,,,0.00,0.00,140423,,,N*54

$GNGGA,150657.070,,,,,0,0,,,M,,M,,*51

$GNRMC,150658.070,V,,,,,0.00,0.00,140423,,,N*5B

$GNGGA,150658.070,,,,,0,0,,,M,,M,,*5E

$GNRMC,150659.070,V,,,,,0.00,0.00,140423,,,N*5A

$GNGGA,150659.070,,,,,0,0,,,M,,M,,*5F

$GNRMC,150700.070,V,,,,,0.00,0.00,140423,,,N*57

$GNGGA,150700.070,,,,,0,0,,,M,,M,,*52

$GNRMC,150701.070,V,,,,,0.00,0.00,140423,,,N*56

$GNGGA,150701.070,,,,,0,0,,,M,,M,,*53

$GNRMC,150702.070,V,,,,,0.00,0.00,140423,,,N*55

$GNGGA,150702.070,,,,,0,0,,,M,,M,,*50

$GNRMC,150703.070,V,,,,,0.00,0.00,140423,,,N*54

$GNGGA,150703.070,,,,,0,0,,,M,,M,,*51

$GNRMC,150704.070,V,,,,,0.00,0.00,140423,,,N*53

$GNGGA,150704.070,,,,,0,0,,,M,,M,,*56

$GNRMC,150705.070,V,,,,,0.00,0.00,140423,,,N*52

$GNGGA,150705.070,,,,,0,0,,,M,,M,,*57

$GNRMC,150706.070,V,,,,,0.00,0.00,140423,,,N*51

$GNGGA,150706.070,,,,,0,0,,,M,,M,,*54

$GNRMC,150707.070,V,,,,,0.00,0.00,140423,,,N*50

$GNGGA,150707.070,,,,,0,0,,,M,,M,,*55

$GNRMC,150708.070,V,,,,,0.00,0.00,140423,,,N*5F

$GNGGA,150708.070,,,,,0,0,,,M,,M,,*5A

$GNRMC,150709.070,V,,,,,0.00,0.00,140423,,,N*5E

$GNGGA,150709.070,,,,,0,0,,,M,,M,,*5B

$GNRMC,150710.070,V,,,,,0.00,0.00,140423,,,N*56

$GNGGA,150710.070,,,,,0,0,,,M,,M,,*53

$GNRMC,150711.070,V,,,,,0.00,0.00,140423,,,N*57

$GNGGA,150711.070,,,,,0,0,,,M,,M,,*52

$GNRMC,150712.070,V,,,,,0.00,0.00,140423,,,N*54

$GNGGA,150712.070,,,,,0,0,,,M,,M,,*51

$GNRMC,150713.070,V,,,,,0.00,0.00,140423,,,N*55

$GNGGA,150713.070,,,,,0,0,,,M,,M,,*50

$GNRMC,150714.013,V,,,,,0.05,341.46,140423,,,N*56

$GNGGA,150714.013,,,,,0,0,,,M,,M,,*52

$GNRMC,150715.013,V,,,,,0.00,0.00,140423,,,N*56

$GNGGA,150715.013,,,,,0,0,,,M,,M,,*53

$GNRMC,150716.013,V,,,,,0.00,0.00,140423,,,N*55

$GNGGA,150716.013,,,,,0,0,,,M,,M,,*50

$GNRMC,150717.013,V,,,,,0.00,0.00,140423,,,N*54

$GNGGA,150717.013,,,,,0,0,,,M,,M,,*51

$GNRMC,150718.013,V,,,,,0.00,0.00,140423,,,N*5B

$GNGGA,150718.013,,,,,0,0,,,M,,M,,*5E

$GNRMC,150719.013,V,,,,,0.00,0.00,140423,,,N*5A

$GNGGA,150719.013,,,,,0,0,,,M,,M,,*5F

$GNRMC,150720.013,V,,,,,0.00,0.00,140423,,,N*50

$GNGGA,150720.013,,,,,0,0,,,M,,M,,*55

$GNRMC,150721.013,V,,,,,0.00,0.00,140423,,,N*51

$GNGGA,150721.013,,,,,0,0,,,M,,M,,*54

$GNRMC,150722.013,V,,,,,0.00,0.00,140423,,,N*52

$GNGGA,150722.013,,,,,0,0,,,M,,M,,*57

$GNRMC,150723.013,V,,,,,0.00,0.00,140423,,,N*53

$GNGGA,150723.013,,,,,0,0,,,M,,M,,*56

$GNRMC,150724.013,V,,,,,0.00,0.00,140423,,,N*54

$GNGGA,150724.013,,,,,0,0,,,M,,M,,*51

$GNRMC,150725.013,V,,,,,0.00,0.00,140423,,,N*55

$GNGGA,150725.013,,,,,0,0,,,M,,M,,*50

$GNRMC,150726.013,V,,,,,0.00,0.00,140423,,,N*56

$GNGGA,150726.013,,,,,0,0,,,M,,M,,*53

$GNRMC,150727.013,V,,,,,0.00,161.37,140423,,,N*55

$GNGGA,150727.013,,,,,0,0,,,M,,M,,*52

$GNRMC,150728.013,V,,,,,0.00,341.36,140423,,,N*5B

$GNGGA,150728.013,,,,,0,0,,,M,,M,,*5D

$GNRMC,150729.013,V,,,,,0.00,0.00,140423,,,N*59

$GNGGA,150729.013,,,,,0,0,,,M,,M,,*5C

$GNRMC,150730.013,V,,,,,0.00,0.00,140423,,,N*51

$GNGGA,150730.013,,,,,0,0,,,M,,M,,*54

$GNRMC,150731.013,V,,,,,0.00,0.00,140423,,,N*50

$GNGGA,150731.013,,,,,0,0,,,M,,M,,*55

$GNRMC,150732.013,V,,,,,0.00,0.00,140423,,,N*53

$GNGGA,150732.013,,,,,0,0,,,M,,M,,*56

$GNRMC,150733.013,V,,,,,0.00,341.32,140423,,,N*55

$GNGGA,150733.013,,,,,0,0,,,M,,M,,*57

$GNRMC,150734.013,V,,,,,0.00,0.00,140423,,,N*55

$GNGGA,150734.013,,,,,0,0,,,M,,M,,*50

$GNRMC,150735.013,V,,,,,0.00,0.00,140423,,,N*54

$GNGGA,150735.013,,,,,0,0,,,M,,M,,*51

$GNRMC,150736.013,V,,,,,0.00,0.00,140423,,,N*57

$GNGGA,150736.013,,,,,0,0,,,M,,M,,*52

$GNRMC,150737.013,V,,,,,0.00,0.00,140423,,,N*56

$GNGGA,150737.013,,,,,0,0,,,M,,M,,*53

$GNRMC,150738.013,V,,,,,0.00,0.00,140423,,,N*59

$GNGGA,150738.013,,,,,0,0,,,M,,M,,*5C

$GNRMC,150739.013,V,,,,,0.00,0.00,140423,,,N*58

$GNGGA,150739.013,,,,,0,0,,,M,,M,,*5D

$PMTK001,220,3,1000*1D

$PMTK001,314,3*36

$GNRMC,072902.312,V,,,,,0.00,84.78,150423,,,N*6F

$GNGGA,072902.312,,,,,0,0,,,M,,M,,*58

$GNRMC,072903.312,V,,,,,0.00,84.80,150423,,,N*69

$GNGGA,072903.312,,,,,0,0,,,M,,M,,*59

$GNRMC,072904.312,V,,,,,0.00,84.81,150423,,,N*6F

$GNGGA,072904.312,,,,,0,0,,,M,,M,,*5E

$GNRMC,072905.312,V,,,,,0.02,84.81,150423,,,N*6C

$GNGGA,072905.312,,,,,0,0,,,M,,M,,*5F

$GNRMC,072906.312,V,,,,,0.00,0.00,150423,,,N*58

$GNGGA,072906.312,,,,,0,0,,,M,,M,,*5C

$GNRMC,072907.312,V,,,,,0.01,84.83,150423,,,N*6F

$GNGGA,072907.312,,,,,0,0,,,M,,M,,*5D

$GNRMC,072908.312,V,,,,,0.00,0.00,150423,,,N*56

$GNGGA,072908.312,,,,,0,0,,,M,,M,,*52

$GNRMC,072909.312,V,,,,,0.00,0.00,150423,,,N*57

$GNGGA,072909.312,,,,,0,0,,,M,,M,,*53

$GNRMC,072910.312,V,,,,,0.00,0.00,150423,,,N*5F

$GNGGA,072910.312,,,,,0,0,,,M,,M,,*5B

$GNRMC,072911.312,V,,,,,0.04,84.85,150423,,,N*6B

$GNGGA,072911.312,,,,,0,0,,,M,,M,,*5A

$GNRMC,072912.312,V,,,,,0.00,0.00,150423,,,N*5D

$GNGGA,072912.312,,,,,0,0,,,M,,M,,*59

$GNRMC,072913.312,V,,,,,0.00,0.00,150423,,,N*5C

$GNGGA,072913.312,,,,,0,0,,,M,,M,,*58

$GNRMC,072914.312,V,,,,,0.00,0.00,150423,,,N*5B

$GNGGA,072914.312,,,,,0,0,,,M,,M,,*5F

$GNRMC,072915.312,V,,,,,0.00,0.00,150423,,,N*5A

$GNGGA,072915.312,,,,,0,0,,,M,,M,,*5E

$GNRMC,072916.312,V,,,,,0.00,0.00,150423,,,N*59

$GNGGA,072916.312,,,,,0,0,,,M,,M,,*5D

$GNRMC,072917.312,V,,,,,0.00,0.00,150423,,,N*58

$GNGGA,072917.312,,,,,0,0,,,M,,M,,*5C

$GNRMC,072918.312,V,,,,,0.00,0.00,150423,,,N*57

$GNGGA,072918.312,,,,,0,0,,,M,,M,,*53

$GNRMC,072919.312,V,,,,,0.00,0.00,150423,,,N*56

$GNGGA,072919.312,,,,,0,0,,,M,,M,,*52

$GNRMC,072920.312,V,,,,,0.00,84.87,150423,,,N*6F

$GNGGA,072920.312,,,,,0,0,,,M,,M,,*58

$GNRMC,072921.312,V,,,,,0.00,84.89,150423,,,N*60

$GNGGA,072921.312,,,,,0,0,,,M,,M,,*59

$GNRMC,072922.312,V,,,,,0.00,0.00,150423,,,N*5E

$GNGGA,072922.312,,,,,0,0,,,M,,M,,*5A

$GNRMC,072923.312,V,,,,,0.01,84.91,150423,,,N*6A

$GNGGA,072923.312,,,,,0,0,,,M,,M,,*5B

$GNRMC,072924.312,V,,,,,0.00,0.00,150423,,,N*58

$GNGGA,072924.312,,,,,0,0,,,M,,M,,*5C

$GNRMC,072925.312,V,,,,,0.00,0.00,150423,,,N*59

$GNGGA,072925.312,,,,,0,0,,,M,,M,,*5D

$GNRMC,072926.312,V,,,,,0.00,264.93,150423,,,N*50

$GNGGA,072926.312,,,,,0,0,,,M,,M,,*5E

$GNRMC,072927.312,V,,,,,0.00,0.00,150423,,,N*5B

$GNGGA,072927.312,,,,,0,0,,,M,,M,,*5F

$GNRMC,072928.312,V,,,,,0.06,84.94,150423,,,N*63

$GNGGA,072928.312,,,,,0,0,,,M,,M,,*50

$GNRMC,072929.312,V,,,,,0.00,0.00,150423,,,N*55

$GNGGA,072929.312,,,,,0,0,,,M,,M,,*51

$GNRMC,072930.312,V,,,,,0.00,84.95,150423,,,N*6D

$GNGGA,072930.312,,,,,0,0,,,M,,M,,*59

$GNRMC,072931.312,V,,,,,0.00,0.00,150423,,,N*5C

$GNGGA,072931.312,,,,,0,0,,,M,,M,,*58

$GNRMC,072932.312,V,,,,,0.05,84.96,150423,,,N*69

$GNGGA,072932.312,,,,,0,0,,,M,,M,,*5B

$GNRMC,072933.312,V,,,,,0.00,0.00,150423,,,N*5E

$GNGGA,072933.312,,,,,0,0,,,M,,M,,*5A

$GNRMC,072934.312,V,,,,,0.00,0.00,150423,,,N*59

$GNGGA,072934.312,,,,,0,0,,,M,,M,,*5D

$GNRMC,072935.312,V,,,,,0.00,0.00,150423,,,N*58

$GNGGA,072935.312,,,,,0,0,,,M,,M,,*5C

$GNRMC,072936.312,V,,,,,0.00,0.00,150423,,,N*5B

$GNGGA,072936.312,,,,,0,0,,,M,,M,,*5F

$GNRMC,072937.312,V,,,,,0.00,84.85,150423,,,N*6B

$GNGGA,072937.312,,,,,0,0,,,M,,M,,*5E

$GNRMC,072938.312,V,,,,,0.00,84.96,150423,,,N*66

$GNGGA,072938.312,,,,,0,0,,,M,,M,,*51

$GNRMC,072939.312,V,,,,,0.01,84.98,150423,,,N*68

$GNGGA,072939.312,,,,,0,0,,,M,,M,,*50

$GNRMC,072940.312,V,,,,,0.00,0.00,150423,,,N*5A

$GNGGA,072940.312,,,,,0,0,,,M,,M,,*5E

$GNRMC,072941.312,V,,,,,0.01,85.00,150423,,,N*67

$GNGGA,072941.312,,,,,0,0,,,M,,M,,*5F

$GNRMC,072942.312,V,,,,,0.00,0.00,150423,,,N*58

$GNGGA,072942.312,,,,,0,0,,,M,,M,,*5C

$GNRMC,072943.312,V,,,,,0.01,85.01,150423,,,N*64

$GNGGA,072943.312,,,,,0,0,,,M,,M,,*5D

$GNRMC,072944.312,V,,,,,0.00,85.02,150423,,,N*61

$GNGGA,072944.312,,,,,0,0,,,M,,M,,*5A

$GNRMC,072945.312,V,,,,,0.01,265.02,150423,,,N*5D

$GNGGA,072945.312,,,,,0,0,,,M,,M,,*5B

$GNRMC,072946.312,V,,,,,0.00,0.00,150423,,,N*5C

$GNGGA,072946.312,,,,,0,0,,,M,,M,,*58

$GNRMC,072947.312,V,,,,,0.00,0.00,150423,,,N*5D

$GNGGA,072947.312,,,,,0,0,,,M,,M,,*59

$GNRMC,072948.312,V,,,,,0.00,0.00,150423,,,N*52

$GNGGA,072948.312,,,,,0,0,,,M,,M,,*56

$GNRMC,072949.312,V,,,,,0.00,0.00,150423,,,N*53

$GNGGA,072949.312,,,,,0,0,,,M,,M,,*57

$GNRMC,072950.312,V,,,,,0.00,0.00,150423,,,N*5B

$GNGGA,072950.312,,,,,0,0,,,M,,M,,*5F

$GNRMC,072951.312,V,,,,,0.00,0.00,150423,,,N*5A

$GNGGA,072951.312,,,,,0,0,,,M,,M,,*5E

$GNRMC,072952.312,V,,,,,0.01,265.06,150423,,,N*5F

$GNGGA,072952.312,,,,,0,0,,,M,,M,,*5D

$GNRMC,072953.312,V,,,,,0.00,0.00,150423,,,N*58

$GNGGA,072953.312,,,,,0,0,,,M,,M,,*5C

$GNRMC,072954.312,V,,,,,0.00,0.00,150423,,,N*5F

$GNGGA,072954.312,,,,,0,0,,,M,,M,,*5B

$GNRMC,072955.312,V,,,,,0.00,0.00,150423,,,N*5E

$GNGGA,072955.312,,,,,0,0,,,M,,M,,*5A

$GNRMC,072956.312,V,,,,,0.00,0.00,150423,,,N*5D

$GNGGA,072956.312,,,,,0,0,,,M,,M,,*59

$GNRMC,072957.312,V,,,,,0.06,85.09,150423,,,N*6E

$GNGGA,072957.312,,,,,0,0,,,M,,M,,*58

$GNRMC,072958.312,V,,,,,0.04,265.09,150423,,,N*5F

$GNGGA,072958.312,,,,,0,0,,,M,,M,,*57

$GNRMC,072959.312,V,,,,,0.03,85.10,150423,,,N*6D

$GNGGA,072959.312,,,,,0,0,,,M,,M,,*56

$GNRMC,073000.312,V,,,,,0.01,85.11,150423,,,N*6A

$GNGGA,073000.312,,,,,0,0,,,M,,M,,*52

$GNRMC,073001.311,V,,,,,0.91,262.88,150423,,,N*5A

$GNGGA,073001.311,,,,,0,0,,,M,,M,,*50

$GNRMC,073002.311,V,,,,,1.59,81.04,150423,,,N*67

$GNGGA,073002.311,,,,,0,0,,,M,,M,,*53

$GNRMC,073003.311,V,,,,,1.27,81.37,150423,,,N*6F

$GNGGA,073003.311,,,,,0,0,,,M,,M,,*52

$GNRMC,073004.311,V,,,,,0.47,80.97,150423,,,N*64

$GNGGA,073004.311,,,,,0,0,,,M,,M,,*55

$GNRMC,073005.311,V,,,,,0.42,80.97,150423,,,N*60

$GNGGA,073005.311,,,,,0,0,,,M,,M,,*54

$GNRMC,073006.311,V,,,,,0.00,0.00,150423,,,N*53

$GNGGA,073006.311,,,,,0,0,,,M,,M,,*57

$GNRMC,073007.311,V,,,,,0.43,81.23,150423,,,N*6D

$GNGGA,073007.311,,,,,0,0,,,M,,M,,*56

$GNRMC,073008.311,V,,,,,0.00,0.00,150423,,,N*5D

$GNGGA,073008.311,,,,,0,0,,,M,,M,,*59

$GNRMC,073009.311,V,,,,,0.24,82.02,150423,,,N*62

$GNGGA,073009.311,,,,,0,0,,,M,,M,,*58

$GNRMC,073010.311,V,,,,,0.32,82.01,150423,,,N*6E

$GNGGA,073010.311,,,,,0,0,,,M,,M,,*50

$GNRMC,073011.311,V,,,,,0.48,81.93,150423,,,N*6A

$GNGGA,073011.311,,,,,0,0,,,M,,M,,*51

$GNRMC,073012.311,V,,,,,0.39,82.11,150423,,,N*66

$GNGGA,073012.311,,,,,0,0,,,M,,M,,*52

$GNRMC,073013.311,V,,,,,0.19,82.06,150423,,,N*63

$GNGGA,073013.311,,,,,0,0,,,M,,M,,*53

$GNRMC,073014.311,V,,,,,0.38,82.00,150423,,,N*61

$GNGGA,073014.311,,,,,0,0,,,M,,M,,*54

$GNRMC,073015.311,V,,,,,0.29,81.74,150423,,,N*60

$GNGGA,073015.311,,,,,0,0,,,M,,M,,*55

$GNRMC,073016.311,V,,,,,0.27,81.09,150423,,,N*67

$GNGGA,073016.311,,,,,0,0,,,M,,M,,*56

$GNRMC,073017.311,V,,,,,0.42,82.04,150423,,,N*6B

$GNGGA,073017.311,,,,,0,0,,,M,,M,,*57

$GNRMC,073018.311,V,,,,,0.19,82.68,150423,,,N*60

$GNGGA,073018.311,,,,,0,0,,,M,,M,,*58

$GNRMC,073019.311,V,,,,,0.37,82.01,150423,,,N*62

$GNGGA,073019.311,,,,,0,0,,,M,,M,,*59

$GNRMC,073020.311,V,,,,,0.28,82.10,150423,,,N*66

$GNGGA,073020.311,,,,,0,0,,,M,,M,,*53

$GNRMC,073021.311,V,,,,,0.51,82.19,150423,,,N*60

$GNGGA,073021.311,,,,,0,0,,,M,,M,,*52

$GNRMC,073022.311,V,,,,,0.27,82.38,150423,,,N*61

$GNGGA,073022.311,,,,,0,0,,,M,,M,,*51

$GNRMC,073023.311,V,,,,,0.52,81.88,150423,,,N*6A

$GNGGA,073023.311,,,,,0,0,,,M,,M,,*50

$GNRMC,073024.311,V,,,,,0.45,82.26,150423,,,N*6C

$GNGGA,073024.311,,,,,0,0,,,M,,M,,*57

$GNRMC,073025.311,V,,,,,0.51,82.13,150423,,,N*6E

$GNGGA,073025.311,,,,,0,0,,,M,,M,,*56

$GNRMC,073026.311,V,,,,,0.46,82.29,150423,,,N*62

$GNGGA,073026.311,,,,,0,0,,,M,,M,,*55

$GNRMC,073027.311,V,,,,,0.50,82.31,150423,,,N*6D

$GNGGA,073027.311,,,,,0,0,,,M,,M,,*54

$GNRMC,073028.311,V,,,,,0.49,82.39,150423,,,N*62

$GNGGA,073028.311,,,,,0,0,,,M,,M,,*5B

$GNRMC,073029.311,V,,,,,0.50,82.13,150423,,,N*63

$GNGGA,073029.311,,,,,0,0,,,M,,M,,*5A

$GNRMC,073030.311,V,,,,,0.43,82.24,150423,,,N*6D

$GNGGA,073030.311,,,,,0,0,,,M,,M,,*52

$GNRMC,073031.311,V,,,,,0.56,82.42,150423,,,N*68

$GNGGA,073031.311,,,,,0,0,,,M,,M,,*53

$GNRMC,073032.311,V,,,,,0.45,82.02,150423,,,N*6D

$GNGGA,073032.311,,,,,0,0,,,M,,M,,*50

$GNRMC,073033.311,V,,,,,0.41,82.21,150423,,,N*69

$GNGGA,073033.311,,,,,0,0,,,M,,M,,*51

$GNRMC,073034.311,V,,,,,0.52,82.15,150423,,,N*6B

$GNGGA,073034.311,,,,,0,0,,,M,,M,,*56

$GNRMC,073035.311,V,,,,,0.46,82.10,150423,,,N*6A

$GNGGA,073035.311,,,,,0,0,,,M,,M,,*57

$GNRMC,073036.311,V,,,,,0.51,82.47,150423,,,N*6D

$GNGGA,073036.311,,,,,0,0,,,M,,M,,*54

$GNRMC,073037.311,V,,,,,0.44,82.23,150423,,,N*6A

$GNGGA,073037.311,,,,,0,0,,,M,,M,,*55

$GNRMC,073038.311,V,,,,,0.42,82.23,150423,,,N*63

$GNGGA,073038.311,,,,,0,0,,,M,,M,,*5A

$GNRMC,073039.311,V,,,,,0.43,81.99,150423,,,N*61

$GNGGA,073039.311,,,,,0,0,,,M,,M,,*5B

$GNRMC,073040.311,V,,,,,0.37,81.94,150423,,,N*61

$GNGGA,073040.311,,,,,0,0,,,M,,M,,*55

$GNRMC,073041.311,V,,,,,0.39,82.65,150423,,,N*63

$GNGGA,073041.311,,,,,0,0,,,M,,M,,*54

$GNRMC,073042.311,V,,,,,0.27,82.77,150423,,,N*6C

$GNGGA,073042.311,,,,,0,0,,,M,,M,,*57

$GNRMC,073043.311,V,,,,,0.35,82.51,150423,,,N*6A

$GNGGA,073043.311,,,,,0,0,,,M,,M,,*56

$GNRMC,073044.311,V,,,,,0.49,81.98,150423,,,N*60

$GNGGA,073044.311,,,,,0,0,,,M,,M,,*51

$GNRMC,073045.311,V,,,,,0.46,82.08,150423,,,N*64

$GNGGA,073045.311,,,,,0,0,,,M,,M,,*50

$GNRMC,073046.311,V,,,,,0.44,82.30,150423,,,N*6E

$GNGGA,073046.311,,,,,0,0,,,M,,M,,*53

$GNRMC,073047.311,V,,,,,0.23,82.74,150423,,,N*6E

$GNGGA,073047.311,,,,,0,0,,,M,,M,,*52

$GNRMC,073048.311,V,,,,,0.00,0.00,150423,,,N*59

$GNGGA,073048.311,,,,,0,0,,,M,,M,,*5D

$GNRMC,073049.311,V,,,,,0.23,82.98,150423,,,N*62

$GNGGA,073049.311,,,,,0,0,,,M,,M,,*5C

$GNRMC,073050.311,V,,,,,0.25,82.03,150423,,,N*6E

$GNGGA,073050.311,,,,,0,0,,,M,,M,,*54

$GNRMC,073051.311,V,,,,,0.40,82.51,150423,,,N*6B

$GNGGA,073051.311,,,,,0,0,,,M,,M,,*55

$GNRMC,073052.311,V,,,,,0.00,0.00,150423,,,N*52

$GNGGA,073052.311,,,,,0,0,,,M,,M,,*56

$PMTK001,220,3,1000*1D

$PMTK001,314,3*36

$GNRMC,073102.311,V,,,,,0.00,0.00,150423,,,N*56

$GNGGA,073102.311,,,,,0,0,,,M,,M,,*52

$GNRMC,073103.311,V,,,,,0.13,135.78,150423,,,N*5D

$GNGGA,073103.311,,,,,0,0,,,M,,M,,*53

$GNRMC,073104.311,V,,,,,0.12,355.98,150423,,,N*51

$GNGGA,073104.311,,,,,0,0,,,M,,M,,*54

$GNRMC,073105.311,V,,,,,0.00,0.00,150423,,,N*51

$GNGGA,073105.311,,,,,0,0,,,M,,M,,*55

$GNRMC,073106.311,V,,,,,0.00,0.00,150423,,,N*52

$GNGGA,073106.311,,,,,0,0,,,M,,M,,*56

$GNRMC,073107.311,V,,,,,0.00,0.00,150423,,,N*53

$GNGGA,073107.311,,,,,0,0,,,M,,M,,*57

$GNRMC,073108.311,V,,,,,9.98,324.27,150423,,,N*54

$GNGGA,073108.311,,,,,0,0,,,M,,M,,*58

$GNRMC,073109.311,V,,,,,2.23,12.93,150423,,,N*67

$GNGGA,073109.311,,,,,0,0,,,M,,M,,*59

$GNRMC,073110.311,V,,,,,0.97,339.87,150423,,,N*5D

$GNGGA,073110.311,,,,,0,0,,,M,,M,,*51

$GNRMC,073111.311,V,,,,,0.84,350.66,150423,,,N*5E

$GNGGA,073111.311,,,,,0,0,,,M,,M,,*50

$GNRMC,073112.311,V,,,,,1.88,334.76,150423,,,N*53

$GNGGA,073112.311,,,,,0,0,,,M,,M,,*53

$GNRMC,073113.311,V,,,,,0.36,14.43,150423,,,N*61

$GNGGA,073113.311,,,,,0,0,,,M,,M,,*52

$GNRMC,073114.311,V,,,,,0.47,70.70,150423,,,N*62

$GNGGA,073114.311,,,,,0,0,,,M,,M,,*55

$GNRMC,073115.311,V,,,,,0.44,77.09,150423,,,N*69

$GNGGA,073115.311,,,,,0,0,,,M,,M,,*54

$GNRMC,073116.311,V,,,,,0.21,35.87,150423,,,N*69

$GNGGA,073116.311,,,,,0,0,,,M,,M,,*57

$GNRMC,073117.311,V,,,,,0.68,84.56,150423,,,N*63

$GNGGA,073117.311,,,,,0,0,,,M,,M,,*56

$GNRMC,073118.311,V,,,,,0.65,82.96,150423,,,N*6B

$GNGGA,073118.311,,,,,0,0,,,M,,M,,*59

$PMTK001,220,3,1000*1D

$PMTK001,314,3*36

$GNRMC,073213.311,V,,,,,0.06,246.73,150423,,,N*57

$GNGGA,073213.311,,,,,0,0,,,M,,M,,*51

$GNRMC,073214.311,V,,,,,0.24,144.84,150423,,,N*59

$GNGGA,073214.311,,,,,0,0,,,M,,M,,*56

$GNRMC,073215.311,V,,,,,0.08,81.63,150423,,,N*67

$GNGGA,073215.311,,,,,0,0,,,M,,M,,*57

$GNRMC,073216.311,V,,,,,0.17,101.86,150423,,,N*58

$GNGGA,073216.311,,,,,0,0,,,M,,M,,*54

$GNRMC,073217.311,V,,,,,0.16,2.71,150423,,,N*52

$GNGGA,073217.311,,,,,0,0,,,M,,M,,*55

$GNRMC,073218.311,V,,,,,0.26,313.31,150423,,,N*59

$GNGGA,073218.311,,,,,0,0,,,M,,M,,*5A

$GNRMC,073219.311,V,,,,,0.09,340.76,150423,,,N*50

$GNGGA,073219.311,,,,,0,0,,,M,,M,,*5B

$GNRMC,073220.311,V,,,,,0.31,0.21,150423,,,N*54

$GNGGA,073220.311,,,,,0,0,,,M,,M,,*51

$GNRMC,073221.311,V,,,,,0.59,335.35,150423,,,N*5B

$GNGGA,073221.311,,,,,0,0,,,M,,M,,*50

$GNRMC,073222.311,V,,,,,0.09,54.27,150423,,,N*6A

$GNGGA,073222.311,,,,,0,0,,,M,,M,,*53

$GNRMC,073223.311,V,,,,,0.08,208.05,150423,,,N*51

$GNGGA,073223.311,,,,,0,0,,,M,,M,,*52

$GNRMC,073224.311,V,,,,,0.23,53.69,150423,,,N*69

$GNGGA,073224.311,,,,,0,0,,,M,,M,,*55

$GNRMC,073225.311,V,,,,,0.59,210.29,150423,,,N*54

$GNGGA,073225.311,,,,,0,0,,,M,,M,,*54

$GNRMC,073226.311,V,,,,,0.65,150.54,150423,,,N*55

$GNGGA,073226.311,,,,,0,0,,,M,,M,,*57

$GNRMC,073227.311,V,,,,,0.73,294.11,150423,,,N*59

$GNGGA,073227.311,,,,,0,0,,,M,,M,,*56

$GNRMC,073228.311,V,,,,,0.58,277.82,150423,,,N*58

$GNGGA,073228.311,,,,,0,0,,,M,,M,,*59

$GNRMC,073229.311,V,,,,,0.29,310.59,150423,,,N*59

$GNGGA,073229.311,,,,,0,0,,,M,,M,,*58

$GNRMC,073230.311,V,,,,,0.17,109.71,150423,,,N*5C

$GNGGA,073230.311,,,,,0,0,,,M,,M,,*50

$GNRMC,073231.311,V,,,,,0.08,107.86,150423,,,N*55

$GNGGA,073231.311,,,,,0,0,,,M,,M,,*51

$GNRMC,073232.311,V,,,,,0.19,329.90,150423,,,N*5F

$GNGGA,073232.311,,,,,0,0,,,M,,M,,*52

$GNRMC,073233.311,V,,,,,0.38,274.99,150423,,,N*5D

$GNGGA,073233.311,,,,,0,0,,,M,,M,,*53

$GNRMC,073234.311,V,,,,,0.74,68.53,150423,,,N*6B

$GNGGA,073234.311,,,,,0,0,,,M,,M,,*54

$GNRMC,073235.311,V,,,,,0.30,69.11,150423,,,N*6D

$GNGGA,073235.311,,,,,0,0,,,M,,M,,*55

$GNRMC,073236.311,V,,,,,0.82,123.75,150423,,,N*5A

$GNGGA,073236.311,,,,,0,0,,,M,,M,,*56

$GNRMC,073237.311,V,,,,,0.85,16.09,150423,,,N*60

$GNGGA,073237.311,,,,,0,0,,,M,,M,,*57

$GNRMC,073238.311,V,,,,,0.89,1.69,150423,,,N*53

$GNGGA,073238.311,,,,,0,0,,,M,,M,,*58

$GNRMC,073239.311,V,,,,,0.87,326.99,150423,,,N*55

$GNGGA,073239.311,,,,,0,0,,,M,,M,,*59

$GNRMC,073240.311,V,,,,,0.92,95.47,150423,,,N*67

$GNGGA,073240.311,,,,,0,0,,,M,,M,,*57

$GNRMC,073241.311,V,,,,,0.91,31.08,150423,,,N*60

$GNGGA,073241.311,,,,,0,0,,,M,,M,,*56

$GNRMC,073242.311,V,,,,,0.92,4.17,150423,,,N*58

$GNGGA,073242.311,,,,,0,0,,,M,,M,,*55

$GNRMC,073243.311,V,,,,,0.61,3.15,150423,,,N*50

$GNGGA,073243.311,,,,,0,0,,,M,,M,,*54

$GNRMC,073244.311,V,,,,,0.37,295.35,150423,,,N*5B

$GNGGA,073244.311,,,,,0,0,,,M,,M,,*53

$GNRMC,073245.311,V,,,,,0.42,316.91,150423,,,N*5C

$GNGGA,073245.311,,,,,0,0,,,M,,M,,*52

$GNRMC,073246.311,V,,,,,0.30,321.33,150423,,,N*56

$GNGGA,073246.311,,,,,0,0,,,M,,M,,*51

$GNRMC,073247.311,V,,,,,0.05,282.77,150423,,,N*59

$GNGGA,073247.311,,,,,0,0,,,M,,M,,*50

$GNRMC,073248.311,V,,,,,0.24,263.38,150423,,,N*51

$GNGGA,073248.311,,,,,0,0,,,M,,M,,*5F

$GNRMC,073249.311,V,,,,,0.25,312.54,150423,,,N*5C

$GNGGA,073249.311,,,,,0,0,,,M,,M,,*5E

$GNRMC,073250.311,V,,,,,0.05,332.78,150423,,,N*5A

$GNGGA,073250.311,,,,,0,0,,,M,,M,,*56

$GNRMC,073251.311,V,,,,,0.15,321.23,150423,,,N*56

$GNGGA,073251.311,,,,,0,0,,,M,,M,,*57

$GNRMC,073252.311,V,,,,,0.21,315.66,150423,,,N*54

$GNGGA,073252.311,,,,,0,0,,,M,,M,,*54

$GNRMC,073253.311,V,,,,,0.81,244.73,150423,,,N*5E

$GNGGA,073253.311,,,,,0,0,,,M,,M,,*55

$GNRMC,073254.311,V,,,,,0.69,188.28,150423,,,N*52

$GNGGA,073254.311,,,,,0,0,,,M,,M,,*52

$GNRMC,073255.311,V,,,,,0.68,310.18,150423,,,N*52

$GNGGA,073255.311,,,,,0,0,,,M,,M,,*53

$GNRMC,073256.311,V,,,,,0.54,319.46,150423,,,N*5C

$GNGGA,073256.311,,,,,0,0,,,M,,M,,*50

$GNRMC,073257.311,V,,,,,0.39,303.77,150423,,,N*5F

$GNGGA,073257.311,,,,,0,0,,,M,,M,,*51

$GNRMC,073258.311,V,,,,,0.86,3.77,150423,,,N*57

$GNGGA,073258.311,,,,,0,0,,,M,,M,,*5E

$GNRMC,073259.311,V,,,,,0.65,170.88,150423,,,N*5E

$GNGGA,073259.311,,,,,0,0,,,M,,M,,*5F

$GNRMC,073300.311,V,,,,,1.24,177.27,150423,,,N*55

$GNGGA,073300.311,,,,,0,0,,,M,,M,,*52

$GNRMC,073301.311,V,,,,,0.70,139.46,150423,,,N*59

$GNGGA,073301.311,,,,,0,0,,,M,,M,,*53

$GNRMC,073302.311,V,,,,,0.67,124.76,150423,,,N*53

$GNGGA,073302.311,,,,,0,0,,,M,,M,,*50

$GNRMC,073303.311,V,,,,,0.66,179.50,150423,,,N*5F

$GNGGA,073303.311,,,,,0,0,,,M,,M,,*51

$GNRMC,073304.311,V,,,,,0.58,130.62,150423,,,N*59

$GNGGA,073304.311,,,,,0,0,,,M,,M,,*56

$GNRMC,073305.311,V,,,,,0.62,152.98,150423,,,N*50

$GNGGA,073305.311,,,,,0,0,,,M,,M,,*57

$GNRMC,073306.311,V,,,,,0.68,314.89,150423,,,N*59

$GNGGA,073306.311,,,,,0,0,,,M,,M,,*54

$GNRMC,073307.311,V,,,,,0.78,333.43,150423,,,N*5A

$GNGGA,073307.311,,,,,0,0,,,M,,M,,*55

$GNRMC,073308.311,V,,,,,1.41,1.32,150423,,,N*5A

$GNGGA,073308.311,,,,,0,0,,,M,,M,,*5A

$GNRMC,073309.311,V,,,,,0.04,66.77,150423,,,N*6B

$GNGGA,073309.311,,,,,0,0,,,M,,M,,*5B

$GNRMC,073310.311,V,,,,,0.01,38.06,150423,,,N*6B

$GNGGA,073310.311,,,,,0,0,,,M,,M,,*53

$GNRMC,073311.311,V,,,,,0.27,327.54,150423,,,N*54

$GNGGA,073311.311,,,,,0,0,,,M,,M,,*52

$GNRMC,073312.311,V,,,,,0.18,92.87,150423,,,N*68

$GNGGA,073312.311,,,,,0,0,,,M,,M,,*51

$GNRMC,073313.311,V,,,,,0.04,341.89,150423,,,N*57

$GNGGA,073313.311,,,,,0,0,,,M,,M,,*50

$GNRMC,073314.311,V,,,,,0.86,9.44,150423,,,N*54

$GNGGA,073314.311,,,,,0,0,,,M,,M,,*57

$GNRMC,073315.311,V,,,,,0.95,23.25,150423,,,N*68

$GNGGA,073315.311,,,,,0,0,,,M,,M,,*56

$GNRMC,073316.311,V,,,,,0.91,60.59,150423,,,N*63

$GNGGA,073316.311,,,,,0,0,,,M,,M,,*55

$GNRMC,073317.311,V,,,,,0.92,54.01,150423,,,N*6B

$GNGGA,073317.311,,,,,0,0,,,M,,M,,*54

$GNRMC,073318.311,V,,,,,0.92,66.00,150423,,,N*64

$GNGGA,073318.311,,,,,0,0,,,M,,M,,*5B

$GNRMC,073319.311,V,,,,,0.27,350.34,150423,,,N*5A

$GNGGA,073319.311,,,,,0,0,,,M,,M,,*5A

$GNRMC,073320.311,V,,,,,0.85,74.04,150423,,,N*6E

$GNGGA,073320.311,,,,,0,0,,,M,,M,,*50

$GNRMC,073321.311,V,,,,,0.82,335.38,150423,,,N*51

$GNGGA,073321.311,,,,,0,0,,,M,,M,,*51

$GNRMC,073322.311,V,,,,,0.39,341.56,150423,,,N*59

$GNGGA,073322.311,,,,,0,0,,,M,,M,,*52

$GNRMC,073323.311,V,,,,,0.16,71.54,150423,,,N*67

$GNGGA,073323.311,,,,,0,0,,,M,,M,,*53

$GNRMC,073324.311,V,,,,,0.19,71.11,150423,,,N*6E

$GNGGA,073324.311,,,,,0,0,,,M,,M,,*54

$GNRMC,073325.311,V,,,,,0.04,320.58,150423,,,N*59

$GNGGA,073325.311,,,,,0,0,,,M,,M,,*55

$GNRMC,073326.311,V,,,,,0.08,196.81,150423,,,N*5D

$GNGGA,073326.311,,,,,0,0,,,M,,M,,*56

$GNRMC,073327.311,V,,,,,0.29,286.54,150423,,,N*55

$GNGGA,073327.311,,,,,0,0,,,M,,M,,*57

$GNRMC,073328.311,V,,,,,0.82,349.90,150423,,,N*51

$GNGGA,073328.311,,,,,0,0,,,M,,M,,*58

$GNRMC,073329.311,V,,,,,1.15,3.14,150423,,,N*5E

$GNGGA,073329.311,,,,,0,0,,,M,,M,,*59

$GNRMC,073330.311,V,,,,,0.73,349.41,150423,,,N*5A

$GNGGA,073330.311,,,,,0,0,,,M,,M,,*51

$GNRMC,073331.311,V,,,,,0.28,25.98,150423,,,N*68

$GNGGA,073331.311,,,,,0,0,,,M,,M,,*50

$GNRMC,073332.311,V,,,,,0.18,342.18,150423,,,N*52

$GNGGA,073332.311,,,,,0,0,,,M,,M,,*53

$GNRMC,073333.311,V,,,,,0.64,273.93,150423,,,N*58

$GNGGA,073333.311,,,,,0,0,,,M,,M,,*52

$GNRMC,073334.311,V,,,,,0.14,280.27,150423,,,N*5B

$GNGGA,073334.311,,,,,0,0,,,M,,M,,*55

$GNRMC,073335.311,V,,,,,0.07,76.10,150423,,,N*67

$GNGGA,073335.311,,,,,0,0,,,M,,M,,*54

$PMTK001,220,3,1000*1D

$PMTK001,314,3*36

$GNRMC,073511.000,A,5020.1692,N,01932.0301,E,0.00,122.15,150423,,,A*75

$GNGGA,073511.000,5020.1692,N,01932.0301,E,1,5,2.13,312.3,M,42.0,M,,*43

$GNRMC,073512.000,A,5020.1692,N,01932.0301,E,0.00,122.15,150423,,,A*76

$GNGGA,073512.000,5020.1692,N,01932.0301,E,1,5,2.13,312.3,M,42.0,M,,*40

$GNRMC,073513.000,A,5020.1685,N,01932.0283,E,0.57,237.13,150423,,,A*79

$GNGGA,073513.000,5020.1685,N,01932.0283,E,1,5,2.13,312.7,M,42.0,M,,*48

$GNRMC,073514.000,A,5020.1686,N,01932.0281,E,0.00,246.56,150423,,,A*7A

$GNGGA,073514.000,5020.1686,N,01932.0281,E,1,5,2.13,312.7,M,42.0,M,,*4E

$GNRMC,073515.000,A,5020.1687,N,01932.0286,E,0.00,146.90,150423,,,A*74

$GNGGA,073515.000,5020.1687,N,01932.0286,E,1,5,2.13,312.9,M,42.0,M,,*47

$GNRMC,073516.000,A,5020.1687,N,01932.0292,E,0.00,309.82,150423,,,A*78

$GNGGA,073516.000,5020.1687,N,01932.0292,E,1,5,2.13,313.0,M,42.0,M,,*49

$GNRMC,073517.000,A,5020.1687,N,01932.0292,E,0.00,309.82,150423,,,A*79

$GNGGA,073517.000,5020.1687,N,01932.0292,E,1,5,2.13,313.0,M,42.0,M,,*48

$GNRMC,073518.000,A,5020.1687,N,01932.0292,E,0.00,309.82,150423,,,A*76

$GNGGA,073518.000,5020.1687,N,01932.0292,E,1,5,2.13,313.0,M,42.0,M,,*47

$GNRMC,073519.000,A,5020.1687,N,01932.0292,E,0.00,309.82,150423,,,A*77

$GNGGA,073519.000,5020.1687,N,01932.0292,E,1,5,2.13,313.0,M,42.0,M,,*46

$GNRMC,073520.000,A,5020.1687,N,01932.0292,E,0.00,309.82,150423,,,A*7D

$GNGGA,073520.000,5020.1687,N,01932.0292,E,1,5,2.13,313.0,M,42.0,M,,*4C

$GNRMC,073521.000,A,5020.1687,N,01932.0292,E,0.00,309.82,150423,,,A*7C

$GNGGA,073521.000,5020.1687,N,01932.0292,E,1,5,2.13,313.0,M,42.0,M,,*4D

$GNRMC,073522.000,A,5020.1687,N,01932.0292,E,0.00,309.82,150423,,,A*7F

$GNGGA,073522.000,5020.1687,N,01932.0292,E,1,5,2.13,313.0,M,42.0,M,,*4E

$GNRMC,073523.000,A,5020.1687,N,01932.0292,E,0.00,309.82,150423,,,A*7E

$GNGGA,073523.000,5020.1687,N,01932.0292,E,1,5,2.13,313.0,M,42.0,M,,*4F

$GNRMC,073524.000,A,5020.1687,N,01932.0292,E,0.00,309.82,150423,,,A*79

$GNGGA,073524.000,5020.1687,N,01932.0292,E,1,5,2.13,313.0,M,42.0,M,,*48

$GNRMC,073525.000,A,5020.1687,N,01932.0292,E,0.00,309.82,150423,,,A*78

$GNGGA,073525.000,5020.1687,N,01932.0292,E,1,6,1.81,313.0,M,42.0,M,,*42

$GNRMC,073526.000,A,5020.1687,N,01932.0292,E,0.00,309.82,150423,,,A*7B

$GNGGA,073526.000,5020.1687,N,01932.0292,E,1,6,1.81,313.0,M,42.0,M,,*41

$GNRMC,073527.000,A,5020.1687,N,01932.0292,E,0.00,309.82,150423,,,A*7A

$GNGGA,073527.000,5020.1687,N,01932.0292,E,1,6,1.81,313.0,M,42.0,M,,*40

$GNRMC,073528.000,A,5020.1687,N,01932.0292,E,0.00,309.82,150423,,,A*75

$GNGGA,073528.000,5020.1687,N,01932.0292,E,1,6,1.81,313.0,M,42.0,M,,*4F

$GNRMC,073529.000,A,5020.1687,N,01932.0292,E,0.00,309.82,150423,,,A*74

$GNGGA,073529.000,5020.1687,N,01932.0292,E,1,6,1.81,313.0,M,42.0,M,,*4E

$GNRMC,073530.000,A,5020.1687,N,01932.0292,E,0.00,309.82,150423,,,A*7C

$GNGGA,073530.000,5020.1687,N,01932.0292,E,1,6,1.81,313.0,M,42.0,M,,*46

$GNRMC,073531.000,A,5020.1687,N,01932.0292,E,0.00,309.82,150423,,,A*7D

$GNGGA,073531.000,5020.1687,N,01932.0292,E,1,6,1.81,313.0,M,42.0,M,,*47

$GNRMC,073532.000,A,5020.1687,N,01932.0292,E,0.00,309.82,150423,,,A*7E

$GNGGA,073532.000,5020.1687,N,01932.0292,E,1,6,1.81,313.0,M,42.0,M,,*44

$GNRMC,073533.000,A,5020.1687,N,01932.0292,E,0.00,309.82,150423,,,A*7F

$GNGGA,073533.000,5020.1687,N,01932.0292,E,1,6,1.81,313.0,M,42.0,M,,*45

$GNRMC,073534.000,A,5020.1687,N,01932.0292,E,0.00,309.82,150423,,,A*78

$GNGGA,073534.000,5020.1687,N,01932.0292,E,1,6,1.81,313.0,M,42.0,M,,*42

$GNRMC,073535.000,A,5020.1687,N,01932.0292,E,0.00,309.82,150423,,,A*79

$GNGGA,073535.000,5020.1687,N,01932.0292,E,1,6,1.81,313.0,M,42.0,M,,*43

$GNRMC,073536.000,A,5020.1687,N,01932.0292,E,0.00,309.82,150423,,,A*7A

$GNGGA,073536.000,5020.1687,N,01932.0292,E,1,6,1.81,313.0,M,42.0,M,,*40

$GNRMC,073537.000,A,5020.1687,N,01932.0292,E,0.00,309.82,150423,,,A*7B

$GNGGA,073537.000,5020.1687,N,01932.0292,E,1,6,1.81,313.0,M,42.0,M,,*41

$GNRMC,073538.000,A,5020.1687,N,01932.0292,E,0.00,309.82,150423,,,A*74

$GNGGA,073538.000,5020.1687,N,01932.0292,E,1,6,1.81,313.0,M,42.0,M,,*4E

$GNRMC,073539.000,A,5020.1687,N,01932.0292,E,0.00,309.82,150423,,,A*75

$GNGGA,073539.000,5020.1687,N,01932.0292,E,1,6,1.81,313.0,M,42.0,M,,*4F

$GNRMC,073540.000,A,5020.1687,N,01932.0292,E,0.00,309.82,150423,,,A*7B

$GNGGA,073540.000,5020.1687,N,01932.0292,E,1,6,1.81,313.0,M,42.0,M,,*41

$GNRMC,073541.000,A,5020.1687,N,01932.0292,E,0.00,309.82,150423,,,A*7A

$GNGGA,073541.000,5020.1687,N,01932.0292,E,1,6,1.81,313.0,M,42.0,M,,*40

$GNRMC,073542.000,A,5020.1687,N,01932.0292,E,0.00,309.82,150423,,,A*79

$GNGGA,073542.000,5020.1687,N,01932.0292,E,1,6,1.81,313.0,M,42.0,M,,*43

$PMTK001,220,3,1000*1D

$PMTK001,314,3*36

$GNRMC,073744.000,A,5020.1673,N,01932.0161,E,0.38,32.20,150423,,,A*41

$GNGGA,073744.000,5020.1673,N,01932.0161,E,1,9,1.12,322.1,M,42.0,M,,*45

$GNRMC,073745.000,A,5020.1676,N,01932.0161,E,0.49,13.68,150423,,,A*4C

$GNGGA,073745.000,5020.1676,N,01932.0161,E,1,10,0.96,322.0,M,42.0,M,,*75

$GNRMC,073746.000,A,5020.1680,N,01932.0158,E,0.61,1.38,150423,,,A*70

$GNGGA,073746.000,5020.1680,N,01932.0158,E,1,10,0.96,321.9,M,42.0,M,,*7F

$GNRMC,073747.000,A,5020.1681,N,01932.0157,E,0.69,358.00,150423,,,A*73

$GNGGA,073747.000,5020.1681,N,01932.0157,E,1,10,0.96,321.8,M,42.0,M,,*71

$GNRMC,073748.000,A,5020.1682,N,01932.0159,E,0.78,4.51,150423,,,A*7F

$GNGGA,073748.000,5020.1682,N,01932.0159,E,1,10,0.96,321.7,M,42.0,M,,*7C

$GNRMC,073749.000,A,5020.1683,N,01932.0162,E,0.85,12.87,150423,,,A*49

$GNGGA,073749.000,5020.1683,N,01932.0162,E,1,10,0.96,321.6,M,42.0,M,,*75

$GNRMC,073750.000,A,5020.1685,N,01932.0162,E,0.91,9.61,150423,,,A*70

$GNGGA,073750.000,5020.1685,N,01932.0162,E,1,10,0.96,321.6,M,42.0,M,,*7B

$GNRMC,073751.000,A,5020.1685,N,01932.0165,E,0.95,35.45,150423,,,A*4B

$GNGGA,073751.000,5020.1685,N,01932.0165,E,1,10,0.96,321.5,M,42.0,M,,*7E

$GNRMC,073752.000,A,5020.1687,N,01932.0167,E,0.96,27.49,150423,,,A*44

$GNGGA,073752.000,5020.1687,N,01932.0167,E,1,10,0.96,321.4,M,42.0,M,,*7C

$GNRMC,073753.000,A,5020.1690,N,01932.0169,E,0.93,16.01,150423,,,A*46

$GNGGA,073753.000,5020.1690,N,01932.0169,E,1,10,0.96,321.4,M,42.0,M,,*75

$GNRMC,073754.000,A,5020.1692,N,01932.0168,E,0.91,10.15,150423,,,A*43

$GNGGA,073754.000,5020.1692,N,01932.0168,E,1,9,0.96,321.3,M,42.0,M,,*4E

$GNRMC,073755.000,A,5020.1693,N,01932.0169,E,0.87,6.33,150423,,,A*76

$GNGGA,073755.000,5020.1693,N,01932.0169,E,1,10,0.96,321.2,M,42.0,M,,*76

$GNRMC,073756.000,A,5020.1692,N,01932.0166,E,0.80,354.68,150423,,,A*76

$GNGGA,073756.000,5020.1692,N,01932.0166,E,1,10,0.96,321.2,M,42.0,M,,*7B

$GNRMC,073757.000,A,5020.1692,N,01932.0169,E,0.00,32.00,150423,,,A*4D

$GNGGA,073757.000,5020.1692,N,01932.0169,E,1,10,0.96,321.2,M,42.0,M,,*75

$GNRMC,073758.000,A,5020.1691,N,01932.0168,E,0.00,20.63,150423,,,A*46

$GNGGA,073758.000,5020.1691,N,01932.0168,E,1,10,0.96,321.2,M,42.0,M,,*78

$GNRMC,073759.000,A,5020.1691,N,01932.0166,E,0.00,345.50,150423,,,A*79

$GNGGA,073759.000,5020.1691,N,01932.0166,E,1,10,0.96,321.2,M,42.0,M,,*77

$GNRMC,073800.000,A,5020.1691,N,01932.0166,E,0.00,345.50,150423,,,A*7A

$GNGGA,073800.000,5020.1691,N,01932.0166,E,1,10,0.96,321.2,M,42.0,M,,*74

$GNRMC,073801.000,A,5020.1691,N,01932.0166,E,0.00,345.50,150423,,,A*7B

$GNGGA,073801.000,5020.1691,N,01932.0166,E,1,10,0.96,321.2,M,42.0,M,,*75

$GNRMC,073802.000,A,5020.1691,N,01932.0166,E,0.00,345.50,150423,,,A*78

$GNGGA,073802.000,5020.1691,N,01932.0166,E,1,10,0.96,321.2,M,42.0,M,,*76

$GNRMC,073803.000,A,5020.1691,N,01932.0166,E,0.00,345.50,150423,,,A*79

$GNGGA,073803.000,5020.1691,N,01932.0166,E,1,10,0.96,321.2,M,42.0,M,,*77

$GNRMC,073804.000,A,5020.1691,N,01932.0166,E,0.00,345.50,150423,,,A*7E

$GNGGA,073804.000,5020.1691,N,01932.0166,E,1,10,0.96,321.2,M,42.0,M,,*70

$GNRMC,073805.000,A,5020.1685,N,01932.0168,E,0.49,173.98,150423,,,A*7A

$GNGGA,073805.000,5020.1685,N,01932.0168,E,1,10,0.96,321.3,M,42.0,M,,*7B

$GNRMC,073806.000,A,5020.1679,N,01932.0165,E,0.59,191.93,150423,,,A*71

$GNGGA,073806.000,5020.1679,N,01932.0165,E,1,10,0.96,321.6,M,42.0,M,,*73

$GNRMC,073807.000,A,5020.1674,N,01932.0159,E,0.71,208.16,150423,,,A*76

$GNGGA,073807.000,5020.1674,N,01932.0159,E,1,10,0.96,321.8,M,42.0,M,,*7E

$GNRMC,073808.000,A,5020.1669,N,01932.0150,E,0.88,223.22,150423,,,A*74

$GNGGA,073808.000,5020.1669,N,01932.0150,E,1,10,0.96,322.0,M,42.0,M,,*7F

$GNRMC,073809.000,A,5020.1662,N,01932.0145,E,1.06,217.64,150423,,,A*78

$GNGGA,073809.000,5020.1662,N,01932.0145,E,1,10,0.96,322.2,M,42.0,M,,*73

$GNRMC,073810.000,A,5020.1663,N,01932.0133,E,1.25,243.44,150423,,,A*72

$GNGGA,073810.000,5020.1663,N,01932.0133,E,1,10,0.96,322.3,M,42.0,M,,*7A

$GNRMC,073811.000,A,5020.1665,N,01932.0132,E,1.36,251.08,150423,,,A*7D

$GNGGA,073811.000,5020.1665,N,01932.0132,E,1,10,0.96,322.4,M,42.0,M,,*7B

$GNRMC,073812.000,A,5020.1660,N,01932.0125,E,1.42,240.78,150423,,,A*79

$GNGGA,073812.000,5020.1660,N,01932.0125,E,1,10,0.96,322.6,M,42.0,M,,*79

$GNRMC,073813.000,A,5020.1654,N,01932.0124,E,1.51,221.86,150423,,,A*7A

$GNGGA,073813.000,5020.1654,N,01932.0124,E,1,10,0.96,322.8,M,42.0,M,,*70

$GNRMC,073814.000,A,5020.1651,N,01932.0122,E,1.44,217.98,150423,,,A*70

$GNGGA,073814.000,5020.1651,N,01932.0122,E,1,10,0.96,323.0,M,42.0,M,,*7D

$GNRMC,073815.000,A,5020.1649,N,01932.0120,E,1.43,217.07,150423,,,A*7B

$GNGGA,073815.000,5020.1649,N,01932.0120,E,1,10,0.96,323.2,M,42.0,M,,*75

$GNRMC,073816.000,A,5020.1646,N,01932.0116,E,1.38,232.25,150423,,,A*79

$GNGGA,073816.000,5020.1646,N,01932.0116,E,1,10,0.96,323.3,M,42.0,M,,*7D

$GNRMC,073817.000,A,5020.1644,N,01932.0113,E,1.31,235.67,150423,,,A*77

$GNGGA,073817.000,5020.1644,N,01932.0113,E,1,10,0.96,323.5,M,42.0,M,,*7D

$GNRMC,073818.000,A,5020.1645,N,01932.0108,E,1.23,251.79,150423,,,A*7D

$GNGGA,073818.000,5020.1645,N,01932.0108,E,1,10,0.96,323.6,M,42.0,M,,*7A

$GNRMC,073819.000,A,5020.1644,N,01932.0100,E,1.17,258.37,150423,,,A*71

$GNGGA,073819.000,5020.1644,N,01932.0100,E,1,10,0.96,323.8,M,42.0,M,,*7C

$GNRMC,073820.000,A,5020.1645,N,01932.0093,E,1.09,264.82,150423,,,A*7F

$GNGGA,073820.000,5020.1645,N,01932.0093,E,1,10,0.96,323.9,M,42.0,M,,*7D

$GNRMC,073821.000,A,5020.1646,N,01932.0090,E,1.06,263.80,150423,,,A*74

$GNGGA,073821.000,5020.1646,N,01932.0090,E,1,10,0.96,324.1,M,42.0,M,,*73

$GNRMC,073822.000,A,5020.1646,N,01932.0087,E,1.04,263.36,150423,,,A*7E

$GNGGA,073822.000,5020.1646,N,01932.0087,E,1,10,0.96,324.2,M,42.0,M,,*75

$GNRMC,073823.000,A,5020.1648,N,01932.0086,E,1.00,279.83,150423,,,A*71

$GNGGA,073823.000,5020.1648,N,01932.0086,E,1,10,0.96,324.3,M,42.0,M,,*7A

$GNRMC,073824.000,A,5020.1650,N,01932.0082,E,0.98,284.73,150423,,,A*76

$GNGGA,073824.000,5020.1650,N,01932.0082,E,1,10,0.96,324.4,M,42.0,M,,*77

$GNRMC,073825.000,A,5020.1651,N,01932.0080,E,0.97,291.69,150423,,,A*74

$GNGGA,073825.000,5020.1651,N,01932.0080,E,1,10,0.96,324.6,M,42.0,M,,*77

$GNRMC,073826.000,A,5020.1652,N,01932.0077,E,0.95,289.06,150423,,,A*7E

$GNGGA,073826.000,5020.1652,N,01932.0077,E,1,9,0.96,324.8,M,42.0,M,,*49

$GNRMC,073827.000,A,5020.1651,N,01932.0073,E,0.93,288.91,150423,,,A*71

$GNGGA,073827.000,5020.1651,N,01932.0073,E,1,10,0.96,324.9,M,42.0,M,,*76

$GNRMC,073828.000,A,5020.1650,N,01932.0070,E,0.90,287.06,150423,,,A*7E

$GNGGA,073828.000,5020.1650,N,01932.0070,E,1,10,0.96,325.1,M,42.0,M,,*72

$GNRMC,073829.000,A,5020.1651,N,01932.0067,E,0.84,294.71,150423,,,A*7F

$GNGGA,073829.000,5020.1651,N,01932.0067,E,1,10,0.96,325.2,M,42.0,M,,*77

$GNRMC,073830.000,A,5020.1656,N,01932.0065,E,0.78,321.13,150423,,,A*7A

$GNGGA,073830.000,5020.1656,N,01932.0065,E,1,9,0.96,325.4,M,42.0,M,,*44

$GNRMC,073831.000,A,5020.1661,N,01932.0065,E,0.85,8.19,150423,,,A*7F

$GNGGA,073831.000,5020.1661,N,01932.0065,E,1,9,1.12,325.5,M,42.0,M,,*4D

$GNRMC,073832.000,A,5020.1664,N,01932.0065,E,0.94,8.59,150423,,,A*7D

$GNGGA,073832.000,5020.1664,N,01932.0065,E,1,9,1.12,325.7,M,42.0,M,,*49

$GNRMC,073833.000,A,5020.1664,N,01932.0063,E,1.04,8.58,150423,,,A*73

$GNGGA,073833.000,5020.1664,N,01932.0063,E,1,10,0.96,325.8,M,42.0,M,,*74

$GNRMC,073834.000,A,5020.1665,N,01932.0059,E,1.08,354.02,150423,,,A*75

$GNGGA,073834.000,5020.1665,N,01932.0059,E,1,9,0.96,325.9,M,42.0,M,,*42

$GNRMC,073835.000,A,5020.1666,N,01932.0055,E,1.11,312.41,150423,,,A*76

$GNGGA,073835.000,5020.1666,N,01932.0055,E,1,9,0.96,326.0,M,42.0,M,,*46

$GNRMC,073836.000,A,5020.1670,N,01932.0052,E,1.19,307.69,150423,,,A*73

$GNGGA,073836.000,5020.1670,N,01932.0052,E,1,10,0.96,326.1,M,42.0,M,,*7C

$GNRMC,073837.000,A,5020.1672,N,01932.0051,E,1.23,324.64,150423,,,A*76

$GNGGA,073837.000,5020.1672,N,01932.0051,E,1,10,0.96,326.2,M,42.0,M,,*7F

$GNRMC,073838.000,A,5020.1681,N,01932.0054,E,1.30,320.52,150423,,,A*73

$GNGGA,073838.000,5020.1681,N,01932.0054,E,1,10,0.96,326.4,M,42.0,M,,*7F

$GNRMC,073839.000,A,5020.1692,N,01932.0059,E,1.40,318.15,150423,,,A*72

$GNGGA,073839.000,5020.1692,N,01932.0059,E,1,10,0.96,326.5,M,42.0,M,,*70

$GNRMC,073840.000,A,5020.1702,N,01932.0060,E,1.36,306.17,150423,,,A*72

$GNGGA,073840.000,5020.1702,N,01932.0060,E,1,9,1.03,326.6,M,42.0,M,,*4A

$GNRMC,073841.000,A,5020.1702,N,01932.0060,E,1.21,194.51,150423,,,A*7E

$GNGGA,073841.000,5020.1702,N,01932.0060,E,1,9,1.03,326.7,M,42.0,M,,*4A

$GNRMC,073842.000,A,5020.1702,N,01932.0060,E,1.10,204.71,150423,,,A*77

$GNGGA,073842.000,5020.1702,N,01932.0060,E,1,10,0.96,326.8,M,42.0,M,,*73

$GNRMC,073843.000,A,5020.1701,N,01932.0061,E,0.96,156.75,150423,,,A*7B

$GNGGA,073843.000,5020.1701,N,01932.0061,E,1,10,0.96,326.8,M,42.0,M,,*70

$GNRMC,073844.000,A,5020.1701,N,01932.0064,E,0.91,116.83,150423,,,A*73

$GNGGA,073844.000,5020.1701,N,01932.0064,E,1,10,0.96,326.9,M,42.0,M,,*73

$GNRMC,073845.000,A,5020.1701,N,01932.0062,E,0.95,113.60,150423,,,A*78

$GNGGA,073845.000,5020.1701,N,01932.0062,E,1,10,0.96,327.0,M,42.0,M,,*7C

$GNRMC,073846.000,A,5020.1700,N,01932.0071,E,1.04,98.15,150423,,,A*41

$GNGGA,073846.000,5020.1700,N,01932.0071,E,1,10,0.96,327.0,M,42.0,M,,*7C

$GNRMC,073847.000,A,5020.1694,N,01932.0078,E,1.15,136.35,150423,,,A*72

$GNGGA,073847.000,5020.1694,N,01932.0078,E,1,7,1.42,327.0,M,42.0,M,,*46

$GNRMC,073848.000,A,5020.1693,N,01932.0089,E,1.25,115.65,150423,,,A*73

$GNGGA,073848.000,5020.1693,N,01932.0089,E,1,7,1.42,326.9,M,42.0,M,,*48

$GNRMC,073849.000,A,5020.1693,N,01932.0101,E,1.32,110.41,150423,,,A*76

$GNGGA,073849.000,5020.1693,N,01932.0101,E,1,7,1.42,326.9,M,42.0,M,,*48

$GNRMC,073850.000,A,5020.1703,N,01932.0108,E,1.51,82.08,150423,,,A*4D

$GNGGA,073850.000,5020.1703,N,01932.0108,E,1,9,1.01,327.1,M,42.0,M,,*41

$GNRMC,073851.000,A,5020.1703,N,01932.0115,E,1.63,91.93,150423,,,A*41

$GNGGA,073851.000,5020.1703,N,01932.0115,E,1,9,1.01,327.2,M,42.0,M,,*4F

$GNRMC,073852.000,A,5020.1702,N,01932.0123,E,1.69,101.88,150423,,,A*7E

$GNGGA,073852.000,5020.1702,N,01932.0123,E,1,9,1.14,327.2,M,42.0,M,,*4C

$GNRMC,073853.000,A,5020.1700,N,01932.0132,E,1.80,126.77,150423,,,A*7F

$GNGGA,073853.000,5020.1700,N,01932.0132,E,1,9,1.19,327.3,M,42.0,M,,*43

$GNRMC,073854.000,A,5020.1700,N,01932.0138,E,1.84,116.75,150423,,,A*77

$GNGGA,073854.000,5020.1700,N,01932.0138,E,1,9,1.20,327.4,M,42.0,M,,*43

$GNRMC,073855.000,A,5020.1698,N,01932.0142,E,1.80,138.64,150423,,,A*73

$GNGGA,073855.000,5020.1698,N,01932.0142,E,1,9,1.19,327.4,M,42.0,M,,*45

$GNRMC,073856.000,A,5020.1695,N,01932.0133,E,1.73,229.94,150423,,,A*7B

$GNGGA,073856.000,5020.1695,N,01932.0133,E,1,9,1.19,327.5,M,42.0,M,,*4C

$GNRMC,073857.000,A,5020.1701,N,01932.0135,E,1.54,211.25,150423,,,A*74

$GNGGA,073857.000,5020.1701,N,01932.0135,E,1,9,1.19,327.6,M,42.0,M,,*44

$GNRMC,073858.000,A,5020.1702,N,01932.0139,E,1.38,109.38,150423,,,A*78

$GNGGA,073858.000,5020.1702,N,01932.0139,E,1,8,1.60,327.6,M,42.0,M,,*4B

$GNRMC,073859.000,A,5020.1709,N,01932.0150,E,1.33,82.98,150423,,,A*4E

$GNGGA,073859.000,5020.1709,N,01932.0150,E,1,8,1.60,327.6,M,42.0,M,,*4E

$GNRMC,073900.000,A,5020.1711,N,01932.0159,E,1.27,88.52,150423,,,A*4A

$GNGGA,073900.000,5020.1711,N,01932.0159,E,1,8,1.60,327.7,M,42.0,M,,*42

$GNRMC,073901.000,A,5020.1692,N,01932.0157,E,1.38,119.47,150423,,,A*7C

$GNGGA,073901.000,5020.1692,N,01932.0157,E,1,9,1.12,327.6,M,42.0,M,,*42

$GNRMC,073902.000,A,5020.1659,N,01932.0151,E,1.63,143.90,150423,,,A*75

$GNGGA,073902.000,5020.1659,N,01932.0151,E,1,10,0.96,327.5,M,42.0,M,,*76

$GNRMC,073903.000,A,5020.1647,N,01932.0165,E,1.97,127.28,150423,,,A*76

$GNGGA,073903.000,5020.1647,N,01932.0165,E,1,9,1.01,327.4,M,42.0,M,,*49

$GNRMC,073904.000,A,5020.1629,N,01932.0170,E,2.34,128.86,150423,,,A*7C

$GNGGA,073904.000,5020.1629,N,01932.0170,E,1,9,1.01,326.9,M,42.0,M,,*4E

$GNRMC,073905.000,A,5020.1623,N,01932.0177,E,2.64,134.75,150423,,,A*74

$GNGGA,073905.000,5020.1623,N,01932.0177,E,1,9,0.97,326.8,M,42.0,M,,*4D

$GNRMC,073906.000,A,5020.1626,N,01932.0181,E,2.75,126.60,150423,,,A*7C

$GNGGA,073906.000,5020.1626,N,01932.0181,E,1,9,0.97,326.6,M,42.0,M,,*4C

$GNRMC,073907.000,A,5020.1628,N,01932.0185,E,3.00,104.37,150423,,,A*76

$GNGGA,073907.000,5020.1628,N,01932.0185,E,1,10,0.96,326.5,M,42.0,M,,*7D

$GNRMC,073908.000,A,5020.1640,N,01932.0177,E,3.14,92.85,150423,,,A*48

$GNGGA,073908.000,5020.1640,N,01932.0177,E,1,10,0.96,326.3,M,42.0,M,,*77

$GNRMC,073909.000,A,5020.1647,N,01932.0169,E,3.03,70.61,150423,,,A*41

$GNGGA,073909.000,5020.1647,N,01932.0169,E,1,10,0.96,326.2,M,42.0,M,,*7F

$GNRMC,073910.000,A,5020.1650,N,01932.0166,E,2.91,117.25,150423,,,A*7A

$GNGGA,073910.000,5020.1650,N,01932.0166,E,1,10,0.96,326.1,M,42.0,M,,*7D

$GNRMC,073911.000,A,5020.1651,N,01932.0166,E,2.72,42.21,150423,,,A*42

$GNGGA,073911.000,5020.1651,N,01932.0166,E,1,10,0.96,326.0,M,42.0,M,,*7C

$GNRMC,073912.000,A,5020.1655,N,01932.0167,E,2.38,334.02,150423,,,A*79

$GNGGA,073912.000,5020.1655,N,01932.0167,E,1,10,0.96,326.0,M,42.0,M,,*7A

$GNRMC,073913.000,A,5020.1660,N,01932.0165,E,2.00,323.83,150423,,,A*78

$GNGGA,073913.000,5020.1660,N,01932.0165,E,1,10,0.96,325.9,M,42.0,M,,*75

$GNRMC,073914.000,A,5020.1681,N,01932.0169,E,1.60,25.99,150423,,,A*47

$GNGGA,073914.000,5020.1681,N,01932.0169,E,1,10,0.96,325.7,M,42.0,M,,*7F

$GNRMC,073915.000,A,5020.1687,N,01932.0169,E,1.24,59.17,150423,,,A*4D

$GNGGA,073915.000,5020.1687,N,01932.0169,E,1,10,0.96,325.4,M,42.0,M,,*7B

$GNRMC,073916.000,A,5020.1688,N,01932.0171,E,1.01,61.32,150423,,,A*43

$GNGGA,073916.000,5020.1688,N,01932.0171,E,1,10,0.96,325.5,M,42.0,M,,*7F

$GNRMC,073917.000,A,5020.1689,N,01932.0172,E,0.00,52.29,150423,,,A*4A

$GNGGA,073917.000,5020.1689,N,01932.0172,E,1,10,0.96,325.4,M,42.0,M,,*7D

$GNRMC,073918.000,A,5020.1690,N,01932.0173,E,0.00,52.18,150423,,,A*4E

$GNGGA,073918.000,5020.1690,N,01932.0173,E,1,10,0.96,325.4,M,42.0,M,,*7B

$GNRMC,073919.000,A,5020.1690,N,01932.0173,E,0.00,47.97,150423,,,A*4C

$GNGGA,073919.000,5020.1690,N,01932.0173,E,1,10,0.96,325.3,M,42.0,M,,*7D

$GNRMC,073920.000,A,5020.1690,N,01932.0173,E,0.00,47.97,150423,,,A*46

$GNGGA,073920.000,5020.1690,N,01932.0173,E,1,10,0.96,325.3,M,42.0,M,,*77

$GNRMC,073921.000,A,5020.1690,N,01932.0173,E,0.00,47.97,150423,,,A*47

$GNGGA,073921.000,5020.1690,N,01932.0173,E,1,10,0.96,325.3,M,42.0,M,,*76

$GNRMC,073922.000,A,5020.1690,N,01932.0173,E,0.00,47.97,150423,,,A*44

$GNGGA,073922.000,5020.1690,N,01932.0173,E,1,10,0.96,325.3,M,42.0,M,,*75

$GNRMC,073923.000,A,5020.1690,N,01932.0173,E,0.00,47.97,150423,,,A*45

$GNGGA,073923.000,5020.1690,N,01932.0173,E,1,10,0.96,325.3,M,42.0,M,,*74

$GNRMC,073924.000,A,5020.1690,N,01932.0173,E,0.00,47.97,150423,,,A*42

$GNGGA,073924.000,5020.1690,N,01932.0173,E,1,10,0.96,325.3,M,42.0,M,,*73

$GNRMC,073925.000,A,5020.1690,N,01932.0173,E,0.00,47.97,150423,,,A*43

$GNGGA,073925.000,5020.1690,N,01932.0173,E,1,10,0.96,325.3,M,42.0,M,,*72

$GNRMC,073926.000,A,5020.1690,N,01932.0173,E,0.00,47.97,150423,,,A*40

$GNGGA,073926.000,5020.1690,N,01932.0173,E,1,10,0.96,325.3,M,42.0,M,,*71

$GNRMC,073927.000,A,5020.1690,N,01932.0173,E,0.00,47.97,150423,,,A*41

$GNGGA,073927.000,5020.1690,N,01932.0173,E,1,10,0.96,325.3,M,42.0,M,,*70

$GNRMC,073928.000,A,5020.1690,N,01932.0173,E,0.00,47.97,150423,,,A*4E

$GNGGA,073928.000,5020.1690,N,01932.0173,E,1,10,0.96,325.3,M,42.0,M,,*7F

$GNRMC,073929.000,A,5020.1690,N,01932.0173,E,0.00,47.97,150423,,,A*4F

$GNGGA,073929.000,5020.1690,N,01932.0173,E,1,10,0.96,325.3,M,42.0,M,,*7E

$GNRMC,073930.000,A,5020.1690,N,01932.0173,E,0.00,47.97,150423,,,A*47

$GNGGA,073930.000,5020.1690,N,01932.0173,E,1,10,0.96,325.3,M,42.0,M,,*76

$GNRMC,073931.000,A,5020.1690,N,01932.0173,E,0.00,47.97,150423,,,A*46

$GNGGA,073931.000,5020.1690,N,01932.0173,E,1,9,1.14,325.3,M,42.0,M,,*44

$GNRMC,073932.000,A,5020.1690,N,01932.0173,E,0.00,47.97,150423,,,A*45

$GNGGA,073932.000,5020.1690,N,01932.0173,E,1,9,1.03,325.3,M,42.0,M,,*41

$GNRMC,073933.000,A,5020.1690,N,01932.0173,E,0.00,47.97,150423,,,A*44

$GNGGA,073933.000,5020.1690,N,01932.0173,E,1,9,1.03,325.3,M,42.0,M,,*40

$GNRMC,073934.000,A,5020.1690,N,01932.0173,E,0.00,47.97,150423,,,A*43

$GNGGA,073934.000,5020.1690,N,01932.0173,E,1,10,0.96,325.3,M,42.0,M,,*72

$GNRMC,073935.000,A,5020.1690,N,01932.0173,E,0.00,47.97,150423,,,A*42

$GNGGA,073935.000,5020.1690,N,01932.0173,E,1,10,0.96,325.3,M,42.0,M,,*73

$GNRMC,073936.000,A,5020.1690,N,01932.0173,E,0.00,47.97,150423,,,A*41

$GNGGA,073936.000,5020.1690,N,01932.0173,E,1,10,0.96,325.3,M,42.0,M,,*70

$GNRMC,073937.000,A,5020.1690,N,01932.0173,E,0.00,47.97,150423,,,A*40

$GNGGA,073937.000,5020.1690,N,01932.0173,E,1,10,0.96,325.3,M,42.0,M,,*71

$GNRMC,073938.000,A,5020.1690,N,01932.0173,E,0.00,47.97,150423,,,A*4F

$GNGGA,073938.000,5020.1690,N,01932.0173,E,1,10,0.96,325.3,M,42.0,M,,*7E

$GNRMC,073939.000,A,5020.1690,N,01932.0173,E,0.00,47.97,150423,,,A*4E

$GNGGA,073939.000,5020.1690,N,01932.0173,E,1,11,0.92,325.3,M,42.0,M,,*7A

$GNRMC,073940.000,A,5020.1690,N,01932.0173,E,0.00,47.97,150423,,,A*40

$GNGGA,073940.000,5020.1690,N,01932.0173,E,1,11,0.92,325.3,M,42.0,M,,*74

$GNRMC,073941.000,A,5020.1690,N,01932.0173,E,0.00,47.97,150423,,,A*41

$GNGGA,073941.000,5020.1690,N,01932.0173,E,1,11,0.92,325.3,M,42.0,M,,*75

$GNRMC,073942.000,A,5020.1690,N,01932.0173,E,0.00,47.97,150423,,,A*42

$GNGGA,073942.000,5020.1690,N,01932.0173,E,1,10,0.92,325.3,M,42.0,M,,*77

$GNRMC,073943.000,A,5020.1690,N,01932.0173,E,0.00,47.97,150423,,,A*43

$GNGGA,073943.000,5020.1690,N,01932.0173,E,1,10,0.92,325.3,M,42.0,M,,*76

$GNRMC,073944.000,A,5020.1690,N,01932.0173,E,0.00,47.97,150423,,,A*44

$GNGGA,073944.000,5020.1690,N,01932.0173,E,1,10,0.92,325.3,M,42.0,M,,*71

$GNRMC,073945.000,A,5020.1690,N,01932.0173,E,0.00,47.97,150423,,,A*45

$GNGGA,073945.000,5020.1690,N,01932.0173,E,1,9,1.12,325.3,M,42.0,M,,*41

$GNRMC,073946.000,A,5020.1690,N,01932.0173,E,0.00,47.97,150423,,,A*46

$GNGGA,073946.000,5020.1690,N,01932.0173,E,1,10,0.92,325.3,M,42.0,M,,*73

$GNRMC,073947.000,A,5020.1690,N,01932.0173,E,0.00,47.97,150423,,,A*47

$GNGGA,073947.000,5020.1690,N,01932.0173,E,1,10,0.92,325.3,M,42.0,M,,*72

$GNRMC,073948.000,A,5020.1690,N,01932.0173,E,0.00,47.97,150423,,,A*48

$GNGGA,073948.000,5020.1690,N,01932.0173,E,1,10,0.92,325.3,M,42.0,M,,*7D

$GNRMC,073949.000,A,5020.1690,N,01932.0173,E,0.00,47.97,150423,,,A*49

$GNGGA,073949.000,5020.1690,N,01932.0173,E,1,10,0.93,325.3,M,42.0,M,,*7D

$GNRMC,073950.000,A,5020.1690,N,01932.0173,E,0.00,47.97,150423,,,A*41

$GNGGA,073950.000,5020.1690,N,01932.0173,E,1,10,0.92,325.3,M,42.0,M,,*74

$GNRMC,073951.000,A,5020.1690,N,01932.0173,E,0.00,47.97,150423,,,A*40

$GNGGA,073951.000,5020.1690,N,01932.0173,E,1,10,0.92,325.3,M,42.0,M,,*75

$GNRMC,073952.000,A,5020.1690,N,01932.0173,E,0.00,47.97,150423,,,A*43

$GNGGA,073952.000,5020.1690,N,01932.0173,E,1,10,0.92,325.3,M,42.0,M,,*76

$GNRMC,073953.000,A,5020.1690,N,01932.0173,E,0.00,47.97,150423,,,A*42

$GNGGA,073953.000,5020.1690,N,01932.0173,E,1,10,0.92,325.3,M,42.0,M,,*77

$GNRMC,073954.000,A,5020.1690,N,01932.0173,E,0.00,47.97,150423,,,A*45

$GNGGA,073954.000,5020.1690,N,01932.0173,E,1,10,0.92,325.3,M,42.0,M,,*70

$GNRMC,073955.000,A,5020.1690,N,01932.0173,E,0.00,47.97,150423,,,A*44

$GNGGA,073955.000,5020.1690,N,01932.0173,E,1,10,0.92,325.3,M,42.0,M,,*71

$GNRMC,073956.000,A,5020.1690,N,01932.0173,E,0.00,47.97,150423,,,A*47

$GNGGA,073956.000,5020.1690,N,01932.0173,E,1,10,0.92,325.3,M,42.0,M,,*72

$GNRMC,073957.000,A,5020.1690,N,01932.0173,E,0.00,47.97,150423,,,A*46

$GNGGA,073957.000,5020.1690,N,01932.0173,E,1,10,0.92,325.3,M,42.0,M,,*73

$GNRMC,073958.000,A,5020.1690,N,01932.0173,E,0.00,47.97,150423,,,A*49

$GNGGA,073958.000,5020.1690,N,01932.0173,E,1,9,0.98,325.3,M,42.0,M,,*4E

$GNRMC,073959.000,A,5020.1690,N,01932.0173,E,0.00,47.97,150423,,,A*48

$GNGGA,073959.000,5020.1690,N,01932.0173,E,1,8,1.09,325.3,M,42.0,M,,*47

$GNRMC,074000.000,A,5020.1690,N,01932.0173,E,0.00,47.97,150423,,,A*4A

$GNGGA,074000.000,5020.1690,N,01932.0173,E,1,8,1.09,325.3,M,42.0,M,,*45

$GNRMC,074001.000,A,5020.1690,N,01932.0173,E,0.00,47.97,150423,,,A*4B

$GNGGA,074001.000,5020.1690,N,01932.0173,E,1,8,1.09,325.3,M,42.0,M,,*44

$GNRMC,074002.000,A,5020.1690,N,01932.0173,E,0.00,47.97,150423,,,A*48

$GNGGA,074002.000,5020.1690,N,01932.0173,E,1,9,0.98,325.3,M,42.0,M,,*4F

$GNRMC,074003.000,A,5020.1690,N,01932.0173,E,0.00,47.97,150423,,,A*49

$GNGGA,074003.000,5020.1690,N,01932.0173,E,1,9,0.98,325.3,M,42.0,M,,*4E

$GNRMC,074004.000,A,5020.1690,N,01932.0173,E,0.00,47.97,150423,,,A*4E

$GNGGA,074004.000,5020.1690,N,01932.0173,E,1,10,0.92,325.3,M,42.0,M,,*7B

$GNRMC,074005.000,A,5020.1690,N,01932.0173,E,0.00,47.97,150423,,,A*4F

$GNGGA,074005.000,5020.1690,N,01932.0173,E,1,10,0.92,325.3,M,42.0,M,,*7A

$GNRMC,074006.000,A,5020.1690,N,01932.0173,E,0.00,47.97,150423,,,A*4C

$GNGGA,074006.000,5020.1690,N,01932.0173,E,1,10,0.92,325.3,M,42.0,M,,*79

$GNRMC,074007.000,A,5020.1690,N,01932.0173,E,0.00,47.97,150423,,,A*4D

$GNGGA,074007.000,5020.1690,N,01932.0173,E,1,10,0.92,325.3,M,42.0,M,,*78

$GNRMC,074008.000,A,5020.1690,N,01932.0173,E,0.00,47.97,150423,,,A*42

$GNGGA,074008.000,5020.1690,N,01932.0173,E,1,10,0.92,325.3,M,42.0,M,,*77

$GNRMC,074009.000,A,5020.1690,N,01932.0173,E,0.00,47.97,150423,,,A*43

$GNGGA,074009.000,5020.1690,N,01932.0173,E,1,10,0.92,325.3,M,42.0,M,,*76

$GNRMC,074010.000,A,5020.1690,N,01932.0173,E,0.00,47.97,150423,,,A*4B

$GNGGA,074010.000,5020.1690,N,01932.0173,E,1,10,0.92,325.3,M,42.0,M,,*7E

$GNRMC,074011.000,A,5020.1690,N,01932.0173,E,0.00,47.97,150423,,,A*4A

$GNGGA,074011.000,5020.1690,N,01932.0173,E,1,10,0.92,325.3,M,42.0,M,,*7F

$GNRMC,074012.000,A,5020.1690,N,01932.0173,E,0.00,47.97,150423,,,A*49

$GNGGA,074012.000,5020.1690,N,01932.0173,E,1,10,0.92,325.3,M,42.0,M,,*7C

$GNRMC,074013.000,A,5020.1690,N,01932.0173,E,0.00,47.97,150423,,,A*48

$GNGGA,074013.000,5020.1690,N,01932.0173,E,1,10,0.92,325.3,M,42.0,M,,*7D

$GNRMC,074014.000,A,5020.1690,N,01932.0173,E,0.00,47.97,150423,,,A*4F

$GNGGA,074014.000,5020.1690,N,01932.0173,E,1,10,0.92,325.3,M,42.0,M,,*7A

$GNRMC,074015.000,A,5020.1690,N,01932.0173,E,0.00,47.97,150423,,,A*4E

$GNGGA,074015.000,5020.1690,N,01932.0173,E,1,11,0.89,325.3,M,42.0,M,,*70

$GNRMC,074016.000,A,5020.1690,N,01932.0173,E,0.00,47.97,150423,,,A*4D

$GNGGA,074016.000,5020.1690,N,01932.0173,E,1,11,0.89,325.3,M,42.0,M,,*73

$GNRMC,074017.000,A,5020.1690,N,01932.0173,E,0.00,47.97,150423,,,A*4C

$GNGGA,074017.000,5020.1690,N,01932.0173,E,1,11,0.89,325.3,M,42.0,M,,*72

$GNRMC,074018.000,A,5020.1690,N,01932.0173,E,0.00,47.97,150423,,,A*43

$GNGGA,074018.000,5020.1690,N,01932.0173,E,1,10,0.96,325.3,M,42.0,M,,*72

$GNRMC,074019.000,A,5020.1690,N,01932.0173,E,0.00,47.97,150423,,,A*42

$GNGGA,074019.000,5020.1690,N,01932.0173,E,1,11,0.89,325.3,M,42.0,M,,*7C

$GNRMC,074020.000,A,5020.1690,N,01932.0173,E,0.00,47.97,150423,,,A*48

$GNGGA,074020.000,5020.1690,N,01932.0173,E,1,11,0.89,325.3,M,42.0,M,,*76

$GNRMC,074021.000,A,5020.1690,N,01932.0173,E,0.00,47.97,150423,,,A*49

$GNGGA,074021.000,5020.1690,N,01932.0173,E,1,11,0.89,325.3,M,42.0,M,,*77

$GNRMC,074022.000,A,5020.1690,N,01932.0173,E,0.00,47.97,150423,,,A*4A

$GNGGA,074022.000,5020.1690,N,01932.0173,E,1,11,0.89,325.3,M,42.0,M,,*74

$GNRMC,074023.000,A,5020.1690,N,01932.0173,E,0.00,47.97,150423,,,A*4B

$GNGGA,074023.000,5020.1690,N,01932.0173,E,1,11,0.89,325.3,M,42.0,M,,*75

$GNRMC,074024.000,A,5020.1690,N,01932.0173,E,0.00,47.97,150423,,,A*4C

$GNGGA,074024.000,5020.1690,N,01932.0173,E,1,11,0.89,325.3,M,42.0,M,,*72

$GNRMC,074025.000,A,5020.1690,N,01932.0173,E,0.00,47.97,150423,,,A*4D

$GNGGA,074025.000,5020.1690,N,01932.0173,E,1,11,0.89,325.3,M,42.0,M,,*73

$GNRMC,074026.000,A,5020.1690,N,01932.0173,E,0.00,47.97,150423,,,A*4E

$GNGGA,074026.000,5020.1690,N,01932.0173,E,1,10,0.95,325.3,M,42.0,M,,*7C

$GNRMC,074027.000,A,5020.1690,N,01932.0173,E,0.00,47.97,150423,,,A*4F

$GNGGA,074027.000,5020.1690,N,01932.0173,E,1,10,0.95,325.3,M,42.0,M,,*7D

$GNRMC,074028.000,A,5020.1690,N,01932.0173,E,0.00,47.97,150423,,,A*40

$GNGGA,074028.000,5020.1690,N,01932.0173,E,1,10,0.95,325.3,M,42.0,M,,*72

$GNRMC,074029.000,A,5020.1690,N,01932.0173,E,0.00,47.97,150423,,,A*41

$GNGGA,074029.000,5020.1690,N,01932.0173,E,1,11,0.89,325.3,M,42.0,M,,*7F

$GNRMC,074030.000,A,5020.1690,N,01932.0173,E,0.00,47.97,150423,,,A*49

$GNGGA,074030.000,5020.1690,N,01932.0173,E,1,11,0.89,325.3,M,42.0,M,,*77

$GNRMC,074031.000,A,5020.1690,N,01932.0173,E,0.00,47.97,150423,,,A*48

$GNGGA,074031.000,5020.1690,N,01932.0173,E,1,11,0.89,325.3,M,42.0,M,,*76

$GNRMC,074032.000,A,5020.1690,N,01932.0173,E,0.00,47.97,150423,,,A*4B

$GNGGA,074032.000,5020.1690,N,01932.0173,E,1,11,0.89,325.3,M,42.0,M,,*75

$GNRMC,074033.000,A,5020.1690,N,01932.0173,E,0.00,47.97,150423,,,A*4A

$GNGGA,074033.000,5020.1690,N,01932.0173,E,1,10,0.95,325.3,M,42.0,M,,*78

$GNRMC,074034.000,A,5020.1690,N,01932.0173,E,0.00,47.97,150423,,,A*4D

$GNGGA,074034.000,5020.1690,N,01932.0173,E,1,11,0.89,325.3,M,42.0,M,,*73

$GNRMC,074035.000,A,5020.1690,N,01932.0173,E,0.00,47.97,150423,,,A*4C

$GNGGA,074035.000,5020.1690,N,01932.0173,E,1,11,0.89,325.3,M,42.0,M,,*72

$GNRMC,074036.000,A,5020.1690,N,01932.0173,E,0.00,47.97,150423,,,A*4F

$GNGGA,074036.000,5020.1690,N,01932.0173,E,1,10,0.96,325.3,M,42.0,M,,*7E

$GNRMC,074037.000,A,5020.1690,N,01932.0173,E,0.00,47.97,150423,,,A*4E

$GNGGA,074037.000,5020.1690,N,01932.0173,E,1,11,0.89,325.3,M,42.0,M,,*70

$GNRMC,074038.000,A,5020.1690,N,01932.0173,E,0.00,47.97,150423,,,A*41

$GNGGA,074038.000,5020.1690,N,01932.0173,E,1,11,0.89,325.3,M,42.0,M,,*7F

$GNRMC,074039.000,A,5020.1690,N,01932.0173,E,0.00,47.97,150423,,,A*40

$GNGGA,074039.000,5020.1690,N,01932.0173,E,1,10,0.96,325.3,M,42.0,M,,*71

$GNRMC,074040.000,A,5020.1690,N,01932.0173,E,0.00,47.97,150423,,,A*4E

$GNGGA,074040.000,5020.1690,N,01932.0173,E,1,11,0.89,325.3,M,42.0,M,,*70

$GNRMC,074041.000,A,5020.1690,N,01932.0173,E,0.00,47.97,150423,,,A*4F

$GNGGA,074041.000,5020.1690,N,01932.0173,E,1,11,0.89,325.3,M,42.0,M,,*71

$GNRMC,074042.000,A,5020.1690,N,01932.0173,E,0.00,47.97,150423,,,A*4C

$GNGGA,074042.000,5020.1690,N,01932.0173,E,1,11,0.89,325.3,M,42.0,M,,*72

$GNRMC,074043.000,A,5020.1690,N,01932.0173,E,0.00,47.97,150423,,,A*4D

$GNGGA,074043.000,5020.1690,N,01932.0173,E,1,11,0.89,325.3,M,42.0,M,,*73

$GNRMC,074044.000,A,5020.1690,N,01932.0173,E,0.00,47.97,150423,,,A*4A

$GNGGA,074044.000,5020.1690,N,01932.0173,E,1,11,0.89,325.3,M,42.0,M,,*74

$GNRMC,074045.000,A,5020.1690,N,01932.0173,E,0.00,47.97,150423,,,A*4B

$GNGGA,074045.000,5020.1690,N,01932.0173,E,1,11,0.89,325.3,M,42.0,M,,*75

$GNRMC,074046.000,A,5020.1690,N,01932.0173,E,0.00,47.97,150423,,,A*48

$GNGGA,074046.000,5020.1690,N,01932.0173,E,1,11,0.89,325.3,M,42.0,M,,*76

$GNRMC,074047.000,A,5020.1690,N,01932.0173,E,0.00,47.97,150423,,,A*49

$GNGGA,074047.000,5020.1690,N,01932.0173,E,1,11,0.89,325.3,M,42.0,M,,*77

$GNRMC,074048.000,A,5020.1690,N,01932.0173,E,0.00,47.97,150423,,,A*46

$GNGGA,074048.000,5020.1690,N,01932.0173,E,1,9,1.31,325.3,M,42.0,M,,*43

$GNRMC,074049.000,A,5020.1690,N,01932.0173,E,0.00,47.97,150423,,,A*47

$GNGGA,074049.000,5020.1690,N,01932.0173,E,1,11,0.89,325.3,M,42.0,M,,*79

$GNRMC,074050.000,A,5020.1690,N,01932.0173,E,0.00,47.97,150423,,,A*4F

$GNGGA,074050.000,5020.1690,N,01932.0173,E,1,11,0.89,325.3,M,42.0,M,,*71

$GNRMC,074051.000,A,5020.1690,N,01932.0173,E,0.00,47.97,150423,,,A*4E

$GNGGA,074051.000,5020.1690,N,01932.0173,E,1,11,0.89,325.3,M,42.0,M,,*70

$GNRMC,074052.000,A,5020.1690,N,01932.0173,E,0.00,47.97,150423,,,A*4D

$GNGGA,074052.000,5020.1690,N,01932.0173,E,1,11,0.89,325.3,M,42.0,M,,*73

$GNRMC,074053.000,A,5020.1690,N,01932.0173,E,0.00,47.97,150423,,,A*4C

$GNGGA,074053.000,5020.1690,N,01932.0173,E,1,11,0.89,325.3,M,42.0,M,,*72

$GNRMC,074054.000,A,5020.1690,N,01932.0173,E,0.00,47.97,150423,,,A*4B

$GNGGA,074054.000,5020.1690,N,01932.0173,E,1,11,0.89,325.3,M,42.0,M,,*75

$GNRMC,074055.000,A,5020.1690,N,01932.0173,E,0.00,47.97,150423,,,D*4F

$GNGGA,074055.000,5020.1690,N,01932.0173,E,2,11,0.89,325.3,M,42.0,M,,*77

$GNRMC,074056.000,A,5020.1690,N,01932.0173,E,0.00,47.97,150423,,,D*4C

$GNGGA,074056.000,5020.1690,N,01932.0173,E,2,11,0.89,325.3,M,42.0,M,,*74

$GNRMC,074057.000,A,5020.1690,N,01932.0173,E,0.00,47.97,150423,,,D*4D

$GNGGA,074057.000,5020.1690,N,01932.0173,E,2,11,0.89,325.3,M,42.0,M,,*75

$GNRMC,074058.000,A,5020.1690,N,01932.0173,E,0.00,47.97,150423,,,D*42

$GNGGA,074058.000,5020.1690,N,01932.0173,E,2,11,0.89,325.3,M,42.0,M,,*7A

$GNRMC,074059.000,A,5020.1690,N,01932.0173,E,0.00,47.97,150423,,,D*43

$GNGGA,074059.000,5020.1690,N,01932.0173,E,2,11,0.89,325.3,M,42.0,M,,*7B

$GNRMC,074100.000,A,5020.1690,N,01932.0173,E,0.00,47.97,150423,,,D*4E

$GNGGA,074100.000,5020.1690,N,01932.0173,E,2,11,0.89,325.3,M,42.0,M,,*76

$GNRMC,074101.000,A,5020.1690,N,01932.0173,E,0.00,47.97,150423,,,D*4F

$GNGGA,074101.000,5020.1690,N,01932.0173,E,2,11,0.89,325.3,M,42.0,M,,*77

$GNRMC,074102.000,A,5020.1690,N,01932.0173,E,0.00,47.97,150423,,,D*4C

$GNGGA,074102.000,5020.1690,N,01932.0173,E,2,11,0.89,325.3,M,42.0,M,,*74

$GNRMC,074103.000,A,5020.1690,N,01932.0173,E,0.00,47.97,150423,,,D*4D

$GNGGA,074103.000,5020.1690,N,01932.0173,E,2,11,0.89,325.3,M,42.0,M,,*75

$GNRMC,074104.000,A,5020.1690,N,01932.0173,E,0.00,47.97,150423,,,D*4A

$GNGGA,074104.000,5020.1690,N,01932.0173,E,2,11,0.89,325.3,M,42.0,M,,*72

$GNRMC,074105.000,A,5020.1690,N,01932.0173,E,0.00,47.97,150423,,,D*4B

$GNGGA,074105.000,5020.1690,N,01932.0173,E,2,11,0.89,325.3,M,42.0,M,,*73

$GNRMC,074106.000,A,5020.1690,N,01932.0173,E,0.00,47.97,150423,,,D*48

$GNGGA,074106.000,5020.1690,N,01932.0173,E,2,11,0.89,325.3,M,42.0,M,,*70

$GNRMC,074107.000,A,5020.1690,N,01932.0173,E,0.00,47.97,150423,,,D*49

$GNGGA,074107.000,5020.1690,N,01932.0173,E,2,11,0.89,325.3,M,42.0,M,,*71

$GNRMC,074108.000,A,5020.1690,N,01932.0173,E,0.00,47.97,150423,,,D*46

$GNGGA,074108.000,5020.1690,N,01932.0173,E,2,11,0.89,325.3,M,42.0,M,,*7E

$GNRMC,074109.000,A,5020.1690,N,01932.0173,E,0.00,47.97,150423,,,D*47

$GNGGA,074109.000,5020.1690,N,01932.0173,E,2,11,0.89,325.3,M,42.0,M,,*7F

$GNRMC,074110.000,A,5020.1690,N,01932.0173,E,0.00,47.97,150423,,,D*4F

$GNGGA,074110.000,5020.1690,N,01932.0173,E,2,11,0.89,325.3,M,42.0,M,,*77

$GNRMC,074111.000,A,5020.1690,N,01932.0173,E,0.00,47.97,150423,,,D*4E

$GNGGA,074111.000,5020.1690,N,01932.0173,E,2,11,0.89,325.3,M,42.0,M,,*76

$GNRMC,074112.000,A,5020.1690,N,01932.0173,E,0.00,47.97,150423,,,D*4D

$GNGGA,074112.000,5020.1690,N,01932.0173,E,2,11,0.89,325.3,M,42.0,M,,*75

$GNRMC,074113.000,A,5020.1690,N,01932.0173,E,0.00,47.97,150423,,,D*4C

$GNGGA,074113.000,5020.1690,N,01932.0173,E,2,11,0.89,325.3,M,42.0,M,,*74

$GNRMC,074114.000,A,5020.1690,N,01932.0173,E,0.00,47.97,150423,,,D*4B

$GNGGA,074114.000,5020.1690,N,01932.0173,E,2,11,0.89,325.3,M,42.0,M,,*73

$GNRMC,074115.000,A,5020.1690,N,01932.0173,E,0.00,47.97,150423,,,D*4A

$GNGGA,074115.000,5020.1690,N,01932.0173,E,2,11,0.89,325.3,M,42.0,M,,*72

$GNRMC,074116.000,A,5020.1690,N,01932.0173,E,0.00,47.97,150423,,,D*49

$GNGGA,074116.000,5020.1690,N,01932.0173,E,2,11,0.89,325.3,M,42.0,M,,*71

$GNRMC,074117.000,A,5020.1690,N,01932.0173,E,0.00,47.97,150423,,,D*48

$GNGGA,074117.000,5020.1690,N,01932.0173,E,2,11,0.89,325.3,M,42.0,M,,*70

$GNRMC,074118.000,A,5020.1690,N,01932.0173,E,0.00,47.97,150423,,,D*47

$GNGGA,074118.000,5020.1690,N,01932.0173,E,2,11,0.89,325.3,M,42.0,M,,*7F

$GNRMC,074119.000,A,5020.1690,N,01932.0173,E,0.00,47.97,150423,,,D*46

